name,region,address,type1,type2,lon,lat
율동공원 B주차장,성남시 분당구,경기 성남시 분당구 서현로 459,실외,야외시설,127.1474514,37.37364583
공원마을 공영주차장,성남시 분당구,경기 성남시 분당구 분당동 102,실내,지하,127.1444343,37.37516418
천주교분당성요한성당 주차장,성남시 분당구,경기 성남시 분당구 서현로 498,실내,지하,127.1478665,37.36881762
분당동공영주차장,성남시 분당구,경기 성남시 분당구 분당로381번길 11,실내,지상,127.1464304,37.36877075
장안타운건영빌라 지하주차장,성남시 분당구,경기 성남시 분당구 서현로 471,실내,지하,127.1486285,37.37169994
샛별현대아파트 지하주차장,성남시 분당구,경기 성남시 분당구 불정로 308,실내,지하,127.1311011,37.3696357
쏘카존 율동공원B공영주차장,성남시 분당구,경기 성남시 분당구 서현로 459 지상 1층,실외,야외시설,127.1476842,37.37375456
율동공원B공영주차장 전기차충전소,성남시 분당구,경기 성남시 분당구 서현로 459 지상주차장,실외,야외시설,127.1469387,37.37296169
분당동 장안타운 건영아파트 모든 동의 지하1층 주차장 민방위대피소,성남시 분당구,경기 성남시 분당구 분당로263번길 24,실내,지하,127.1394302,37.37012805
율동자연공원 B주차장 전기차충전소,성남시 분당구,경기 성남시 분당구 서현로 459 율동자연공원 B주차장(서현로방면) 출입구 왼쪽,실외,야외시설,127.147041,37.37275433
분당동 두산건영빌라 모든 동의 지하1층 주차장 민방위대피소,성남시 분당구,경기 성남시 분당구 장안로 67,실내,지하,127.1456336,37.37242179
분당동 한신라이프빌라 모든 동의 지하1층 주차장 민방위대피소,성남시 분당구,경기 성남시 분당구 분당로263번길 68,실내,지하,127.1434002,37.37343366
분당동 샛별마을 우방아파트 모든 동의 지하1층 주차장 민방위대피소,성남시 분당구,경기 성남시 분당구 수내로 181,실내,지하,127.1282467,37.37201393
분당동 샛별마을 동성아파트 모든 동의 지하1층 주차장 민방위대피소,성남시 분당구,경기 성남시 분당구 분당로 212,실내,지하,127.1323446,37.37188598
분당동 샛별마을 라이프아파트 모든 동의 지하1층 주차장 민방위대피소,성남시 분당구,경기 성남시 분당구 분당로 190,실내,지하,127.1303773,37.37278378
분당동 샛별마을 삼부아파트 모든 동의 지하1층 주차장 민방위대피소,성남시 분당구,경기 성남시 분당구 수내로 201,실내,지하,127.128633,37.37016911
수내역환승공영주차장,성남시 분당구,경기 성남시 분당구 수내동 15-1,실내,지하,127.114812,37.37798171
분당구청 주차장2,성남시 분당구,경기 성남시 분당구 분당로 50,실외,야외시설,127.1185127,37.38203987
분당구청 주차장3,성남시 분당구,경기 성남시 분당구 분당로 50,실외,건물주변,127.1191817,37.38241763
황새울공원 공영주차장,성남시 분당구,경기 성남시 분당구 수내동 42,실외,야외시설,127.1186957,37.38357143
MS프라자 주차장,성남시 분당구,경기 성남시 분당구 황새울로214번길 8,실내,지상,127.1122921,37.37811387
MS프라자 주차장,성남시 분당구,경기 성남시 분당구 황새울로214번길 8,실내,지상,127.1122921,37.37811387
MS프라자 주차장,성남시 분당구,경기 성남시 분당구 황새울로214번길 8,실내,지하,127.1122921,37.37811387
MS프라자 주차장,성남시 분당구,경기 성남시 분당구 황새울로214번길 8,실내,지하,127.1122921,37.37811387
분당중앙공원 주차장,성남시 분당구,경기 성남시 분당구 수내동,실외,야외시설,127.1220567,37.37562819
현대오피스 주차장,성남시 분당구,경기 성남시 분당구 황새울로240번길 3,실내,지상,127.114946,37.37995842
초림 주차장,성남시 분당구,경기 성남시 분당구 황새울로240번길 3,실내,지하,127.1149957,37.37996378
분당중앙공원 A주차장,성남시 분당구,경기 성남시 분당구 수내동 69-1,실외,야외시설,127.1227014,37.37492832
수내제2공영주차장,성남시 분당구,경기 성남시 분당구 수내동 119-2,실외,노외,127.1285126,37.36638494
분당중앙공원 B주차장,성남시 분당구,경기 성남시 분당구 수내동 66,실외,야외시설,127.1211818,37.37635351
수내동 공영주차장,성남시 분당구,경기 성남시 분당구 발이봉북로 7,실내,지하,127.1282014,37.36664747
롯데백화점 수내점 그린지하주차장,성남시 분당구,경기 성남시 분당구 수내동 14,실내,지하,127.1150217,37.37852392
롯데백화점 분당점 주차장,성남시 분당구,경기 성남시 분당구 황새울로200번길 45,실내,지상,127.1148885,37.37857631
수내역 환승공영주차장 지하1층~지하3층 민방위대피소,성남시 분당구,경기 성남시 분당구 황새울로200번길 45,실내,지하,127.114317,37.37844712
롯데백화점 분당점 그린지상주차장,성남시 분당구,경기 성남시 분당구 수내동 15-2,미분류,미분류,127.1149651,37.37842126
금호행복시장 주차장,성남시 분당구,경기 성남시 분당구 내정로165번길 38,실외,건물주변,127.1174902,37.37586888
황새울국민체육센터 주차장,성남시 분당구,경기 성남시 분당구 수내동 43,실내,지하,127.1171111,37.38254314
후너스빌딩 주차장,성남시 분당구,경기 성남시 분당구 백현로 93,실내,지상,127.1110712,37.37706984
성남후너스빌딩 주차장,성남시 분당구,경기 성남시 분당구 백현로 93,실외,건물주변,127.1110792,37.37710948
돌고래시장 주차장,성남시 분당구,경기 성남시 분당구 내정로174번길 42,실외,건물주변,127.1221093,37.37184022
휴맥스빌리지 주차장,성남시 분당구,경기 성남시 분당구 황새울로 216,실내,지하,127.113075,37.37837983
초림프라자 주차장,성남시 분당구,경기 성남시 분당구 백현로101번길 17,실내,지하,127.112604,37.37753602
카카오T 도담빌딩 주차장,성남시 분당구,경기 성남시 분당구 황새울로 246,실내,지하,127.115486,37.380139
마루공원 주차장,성남시 분당구,경기 성남시 분당구 수내동 49-1,실외,야외시설,127.113693,37.38316368
하이파킹 수내N타워가든 주차장,성남시 분당구,경기 성남시 분당구 황새울로200번길 26,실내,지하,127.1130327,37.37654178
현대제일상가 주차장,성남시 분당구,경기 성남시 분당구 돌마로 364,실내,지하,127.1237373,37.36978329
로얄펠리스하우스빌 주차장,성남시 분당구,경기 성남시 분당구 백현로 105,실내,지상,127.1121041,37.37620749
로얄펠리스 하우스빌 민영 주차장,성남시 분당구,경기 성남시 분당구 백현로 105,실내,지하,127.1121041,37.37620749
분당 수내동 대명상가 주차장,성남시 분당구,경기 성남시 분당구 내정로173번길 11,실외,건물주변,127.1186902,37.3743062
코끼리 종합상가재래시장 주차장,성남시 분당구,경기 성남시 분당구 수내동 56,실내,지하,127.1204733,37.37246181
오너스타워 주차장,성남시 분당구,경기 성남시 분당구 황새울로200번길 28,실내,지하,127.113409,37.37676488
파크타운대림아파트101동 지하주차장,성남시 분당구,경기 성남시 분당구 내정로 186,실내,지하,127.1215614,37.3744024
조이시티타워 주차장,성남시 분당구,경기 성남시 분당구 황새울로258번길 25,실내,지하,127.1168928,37.37943482
KB국민은행 수내역종합금융센터 주차장,성남시 분당구,경기 성남시 분당구 수내동 16-1,실내,지하,127.1141497,37.37751472
대덕글로리 주차장,성남시 분당구,경기 성남시 분당구 수내로46번길 11,실내,지하,127.1168338,37.37996558
한솔인피니티 주차장,성남시 분당구,경기 성남시 분당구 황새울로200번길 22,실내,지하,127.1125468,37.37630167
보보스쉐르빌 주차장,성남시 분당구,경기 성남시 분당구 수내로 54,실내,지상,127.1178457,37.38011235
청구블루빌 주차장,성남시 분당구,경기 성남시 분당구 황새울로 224,실내,지하,127.1130643,37.37882945
양지프라임 주차장,성남시 분당구,경기 성남시 분당구 내정로 167,실내,지하,127.1190146,37.37387519
동신코아 주차장,성남시 분당구,경기 성남시 분당구 돌마로 361,실내,지하,127.1229654,37.37062475
아마노 수내역그라테아오피스텔 주차장,성남시 분당구,경기 성남시 분당구 황새울로258번길 23,실내,지상,127.117119,37.37964814
다운타운빌딩 주차장,성남시 분당구,경기 성남시 분당구 백현로 97,실내,지상,127.1114572,37.37699649
새하늘새땅,성남시 분당구,경기 성남시 분당구 발이봉로7번길 6-1,골목길,주택가,127.1274428,37.3659545
두산위브센티움2동 주차장,성남시 분당구,경기 성남시 분당구 수내로 42,실내,지상,127.1167324,37.38081445
두산위브센티움2동 주차장,성남시 분당구,경기 성남시 분당구 수내로 42,실내,지상,127.1167324,37.38081445
두산위브센티움2동 주차장,성남시 분당구,경기 성남시 분당구 수내로 42,실내,지하,127.1167324,37.38081445
두산위브센티움2동 주차장,성남시 분당구,경기 성남시 분당구 수내로 42,실내,지하,127.1167324,37.38081445
동현프라자 주차장,성남시 분당구,경기 성남시 분당구 백현로101번길 11,실내,지하,127.1119271,37.37710688
나이스파크 동국대학교 분당한방병원주차장,성남시 분당구,경기 성남시 분당구 불정로 268,실내,지하,127.1280072,37.36726759
나이스파크 동국대학교 분당한방병원주차장,성남시 분당구,경기 성남시 분당구 불정로 268,실내,지하,127.1280072,37.36726759
나이스파크 동국대학교 분당한방병원주차장,성남시 분당구,경기 성남시 분당구 불정로 268,실외,건물주변,127.1280072,37.36726759
나이스파크 동국대학교 분당한방병원주차장,성남시 분당구,경기 성남시 분당구 불정로 268,실외,건물주변,127.1280072,37.36726759
파크타운대림아파트 지하주차장,성남시 분당구,경기 성남시 분당구 내정로166번길 7-6,실내,지하,127.1210947,37.37276031
양지마을1단지금호아파트 지하주차장,성남시 분당구,경기 성남시 분당구 수내로 74,실내,지하,127.1183395,37.37819087
양지금호1 6단지 입주자 대표회의,성남시 분당구,경기 성남시 분당구 수내로 74,실외,건물주변,127.1188561,37.37927969
대덕프라자 주차장,성남시 분당구,경기 성남시 분당구 백현로101번길 16,실내,지하,127.1127172,37.37696827
코리아나빌딩 주차장,성남시 분당구,경기 성남시 분당구 황새울로258번길 32,실내,지상,127.1160798,37.37937075
코포모타워 주차장,성남시 분당구,경기 성남시 분당구 황새울로200번길 34,실내,지상,127.1138612,37.37714828
나이스파크 코포모타워 주차장,성남시 분당구,경기 성남시 분당구 황새울로200번길 34,실내,지하,127.1138623,37.37714648
나이스파크 분당 동신파크 주차장,성남시 분당구,경기 성남시 분당구 내정로 170,실외,건물주변,127.1196587,37.37348259
수내3동 행정복지센터 노상주차장,성남시 분당구,경기 성남시 분당구 수내동 80,실외,건물주변,127.1260421,37.36679756
카카오 T 티맥스 수내타워 주차장,성남시 분당구,경기 성남시 분당구 황새울로258번길 29,실내,지상,127.1167988,37.37919614
판테온오피스텔 주차장,성남시 분당구,경기 성남시 분당구 황새울로200번길 9-7,실내,지상,127.1119067,37.37782501
수내초등학교 주차장,성남시 분당구,경기 성남시 분당구 백현로243번길 12,실외,건물주변,127.1247277,37.36793515
퍼스티플러스 주차장,성남시 분당구,경기 성남시 분당구 황새울로 196,실내,지하,127.1108796,37.37727455
중앙BD,성남시 분당구,경기 성남시 분당구 황새울로258번길 41,미분류,미분류,127.1157488,37.37850609
그린프라자 주차장,성남시 분당구,경기 성남시 분당구 백현로101번길 20,실내,지하,127.1130833,37.37719498
가나프라자 주차장,성남시 분당구,경기 성남시 분당구 황새울로258번길 10-7,실내,지하,127.1162741,37.38017878
세인프라자 주차장,성남시 분당구,경기 성남시 분당구 백현로101번길 12,실내,지하,127.1124932,37.37668826
쏘카존 후너스빌딩 주차장 (기계식),성남시 분당구,경기 성남시 분당구 백현로 93 기계식 주차장 기게식 (좌측) 사용,실내,지상,127.1110792,37.37711038
쏘카존 후너스빌딩 주차장 (기계식),성남시 분당구,경기 성남시 분당구 백현로 93 기계식 주차장 기게식 (좌측) 사용,실내,지상,127.1110792,37.37711038
쏘카존 후너스빌딩 주차장 (기계식),성남시 분당구,경기 성남시 분당구 백현로 93 기계식 주차장 기게식 (좌측) 사용,실외,건물주변,127.1110792,37.37711038
쏘카존 후너스빌딩 주차장 (기계식),성남시 분당구,경기 성남시 분당구 백현로 93 기계식 주차장 기게식 (좌측) 사용,실외,건물주변,127.1110792,37.37711038
쏘카존 MS프라자 주차장,성남시 분당구,경기 성남시 분당구 황새울로214번길 8 지상 6층,실내,지상,127.1122346,37.37813195
쏘카존 [부름호출존] 수내동 공영주차장,성남시 분당구,경기 성남시 분당구 발이봉북로 7 지하 1층,실내,지하,127.1279578,37.3667937
양지마을 금호3단지 301동 앞 지하1~2층 주차장 민방위대피소,성남시 분당구,경기 성남시 분당구 내정로 151,실내,지하,127.1175228,37.37430286
수내역환승주차장 전기차충전소,성남시 분당구,경기 성남시 분당구 황새울로200번길 40 B3 출구쪽 A424기둥,실내,지하,127.1149494,37.37776172
수내제2주차장 전기차충전소,성남시 분당구,경기 성남시 분당구 수내동 119-2 주차장,실내,지하,127.1289398,37.36666559
양지마을 한양5단지 514동 앞 지하1층 주차장 민방위대피소,성남시 분당구,경기 성남시 분당구 내정로165번길 35,실내,지하,127.114206,37.37446379
수내동 공영주차장 전기차충전소,성남시 분당구,경기 성남시 분당구 발이봉북로 7 (주차관리실 옆),실내,지하,127.1279578,37.36676757
수내역환승주차장 전기차충전소,성남시 분당구,경기 성남시 분당구 황새울로200번길 40 지하3층 전기실 앞 벽면 (9기),실내,지하,127.1149258,37.37782031
수내2동 파크타운 롯데아파트 모든 동 주차장 민방위대피소,성남시 분당구,경기 성남시 분당구 내정로 152,실내,지하,127.1185641,37.37238895
수내동 푸른마을 쌍용아파트 506동앞 지하1층 주차장 민방위대피소,성남시 분당구,경기 성남시 분당구 백현로 227,실내,지하,127.122433,37.36816911
수내2동 파크타운 삼익아파트 모든 동 주차장 민방위대피소,성남시 분당구,경기 성남시 분당구 내정로166번길 42,실외,건물주변,127.1203364,37.37087524
수내2동 파크타운 서안아파트 모든 동 주차장 민방위대피소,성남시 분당구,경기 성남시 분당구 수내로 148,실외,건물주변,127.1238276,37.37254484
수내동 푸른마을 벽산아파트 201동앞 지하1층 주차장 민방위대피소,성남시 분당구,경기 성남시 분당구 수내로 174,실내,지하,127.1246247,37.36982741
양지마을 청구2단지 208동 앞 지하1층 주차장 민방위대피소,성남시 분당구,경기 성남시 분당구 내정로 185,실내,지하,127.1193305,37.37514171
정자역 환승 공영주차장,성남시 분당구,경기 성남시 분당구 성남대로331번길 6,실내,지하,127.107266,37.36573124
정자동공영주차장,성남시 분당구,경기 성남시 분당구 정자동 72,실내,지하,127.1120383,37.37142491
한국잡월드 주차장,성남시 분당구,경기 성남시 분당구 정자동 4-6,실외,야외시설,127.1055861,37.37771189
분당서울대학교병원 헬스케어혁신 파크 주차장,성남시 분당구,경기 성남시 분당구 돌마로 172,실내,지하,127.1209792,37.35422361
킨스타워 주차장,성남시 분당구,경기 성남시 분당구 성남대로331번길 8,실내,지상,127.1063066,37.36587537
카카오T 정자엠코헤리츠 3단지 주차장,성남시 분당구,경기 성남시 분당구 정자일로 136,실내,지하,127.1068377,37.36222574
인텔리지2타운 주차장,성남시 분당구,경기 성남시 분당구 정자일로 177,실외,건물주변,127.1053569,37.3664718
정자전원마을 공영주차장,성남시 분당구,경기 성남시 분당구 정자동 239,실내,지하,127.1243213,37.35902443
카카오 T 정자엠코헤리츠 2단지 주차장,성남시 분당구,경기 성남시 분당구 정자일로 140,실내,지하,127.1068608,37.36260865
정자2동 행정복지센터 노상주차장,성남시 분당구,경기 성남시 분당구 내정로 66,미분류,미분류,127.1152679,37.36600484
정자2동 행정복지센터 지하주차장,성남시 분당구,경기 성남시 분당구 내정로 66,실내,지하,127.1152679,37.36600484
백궁동양파라곤오피스텔 주차장,성남시 분당구,경기 성남시 분당구 느티로 22,실내,지상,127.1072389,37.36810277
카카오T 정자역엠코헤리츠1단지 주차장,성남시 분당구,경기 성남시 분당구 정자일로 146,실내,지하,127.1068703,37.36298257
두산위브파빌리온 주차장,성남시 분당구,경기 성남시 분당구 정자동 7,실외,건물주변,127.1075938,37.37155518
정자역AK와이즈플레이스오피스텔 주차장,성남시 분당구,경기 성남시 분당구 느티로 2,실내,지하,127.1051134,37.36832723
폴라리스1빌딩 주차장,성남시 분당구,경기 성남시 분당구 성남대로 381,실내,지하,127.107346,37.37036875
카카오T 정자엠코헤리츠 4단지 주차장,성남시 분당구,경기 성남시 분당구 정자일로 132,실내,지하,127.106826,37.36194463
정자1동 행정복지센터 노상주차장,성남시 분당구,경기 성남시 분당구 정자동 147,골목길,상가,127.1115461,37.36155103
미켈란쉐르빌 상가동 주차장,성남시 분당구,경기 성남시 분당구 정자일로 100,실내,지하,127.1066568,37.35886237
서울24시감자탕해장국 정자2호점 주차장,성남시 분당구,경기 성남시 분당구 내정로107번길 2,실내,지하,127.1145243,37.36992682
대림아크로텔오피스텔 주차장,성남시 분당구,경기 성남시 분당구 성남대로 295,실내,지하,127.1073704,37.36216759
정자1동 노상공영주차장,성남시 분당구,경기 성남시 분당구 정자동 189-7,실외,노상,127.1109119,37.36167957
백궁지엔느 주차장,성남시 분당구,경기 성남시 분당구 정자일로 227,실내,지상,127.1055568,37.37054877
젤존타워 제1민영 주차장,성남시 분당구,경기 성남시 분당구 느티로 16,실내,지하,127.106294,37.36816129
더채움,성남시 분당구,경기 성남시 분당구 정자일로198번길 2,실외,건물주변,127.1061094,37.36773347
분당도서관 부설주차장,성남시 분당구,경기 성남시 분당구 불정로 50,실내,지하,127.1172111,37.35829645
정자유스센터 주차장,성남시 분당구,경기 성남시 분당구 정자동 6-1 지하1층,실외,건물주변,127.1065544,37.3726815
대명제스트빌딩 주차장,성남시 분당구,경기 성남시 분당구 성남대로331번길 3-13,실내,지상,127.107684,37.36437933
삼성아데나루체 주차장,성남시 분당구,경기 성남시 분당구 정자일로 120,실외,건물주변,127.1065645,37.36145741
금산주차프라자,성남시 분당구,경기 성남시 분당구 내정로17번길 4-11,실내,지하,127.1138245,37.36260666
한국잡월드 제2주차장,성남시 분당구,경기 성남시 분당구 분당수서로 501,실외,야외시설,127.1062078,37.37747076
한국잡월드 제1주차장,성남시 분당구,경기 성남시 분당구 분당수서로 501,미분류,미분류,127.106277,37.37849786
그린팩토리 주차장,성남시 분당구,경기 성남시 분당구 불정로 6,실내,지하,127.1057985,37.3593569
백궁프라자3 주차장,성남시 분당구,경기 성남시 분당구 성남대로331번길 3-9,실내,지하,127.1076008,37.36463709
주택전시관 주차장,성남시 분당구,경기 성남시 분당구 불정로 64,실외,야외시설,127.1109187,37.35934861
평림빌딩 주차장,성남시 분당구,경기 성남시 분당구 정자로 82,골목길,상가,127.1140625,37.36318399
서울감자탕 정자1호점 주차장,성남시 분당구,경기 성남시 분당구 내정로31번길 7-13,골목길,상가,127.1141218,37.36214055
이마트 분당점 주차장,성남시 분당구,경기 성남시 분당구 불정로 134,실내,지상,127.1197516,37.35879397
정자역프라자 주차장,성남시 분당구,경기 성남시 분당구 성남대로 345,실내,지하,127.1076786,37.36692022
정자아이파크오피스텔 주차장,성남시 분당구,경기 성남시 분당구 백현로 100,실내,지상,127.1104466,37.37615859
백궁프라자2 주차장,성남시 분당구,경기 성남시 분당구 정자일로 158,실내,지하,127.1063653,37.36425077
분당도서관 주차장,성남시 분당구,경기 성남시 분당구 불정로 110,실내,지하,127.116581,37.35810425
분당 정자3공영주차장,성남시 분당구,경기 성남시 분당구 불정로 110,실외,건물주변,127.1164165,37.35832696
정자스타빌딩 주차장,성남시 분당구,경기 성남시 분당구 성남대로331번길 7,실내,지상,127.1070386,37.36543411
백궁프라자1 주차장,성남시 분당구,경기 성남시 분당구 성남대로331번길 13,실내,지하,127.1061489,37.36519912
아이파크분당1단지아파트 주차장,성남시 분당구,경기 성남시 분당구 정자일로 239,실내,지하,127.105594,37.37126865
젤존타워3 주차장,성남시 분당구,경기 성남시 분당구 성남대로331번길 3-3,실내,지하,127.1077124,37.36531997
하나프라자 주차장,성남시 분당구,경기 성남시 분당구 느티로 27,실내,지상,127.1072851,37.36888752
더샵스타파크 주차장,성남시 분당구,경기 성남시 분당구 정자일로 121,실내,지하,127.1057373,37.36078418
지파크프라자 주차장,성남시 분당구,경기 성남시 분당구 정자일로 192,실내,지하,127.1062162,37.36737566
반포메딕스빌딩,성남시 분당구,경기 성남시 분당구 정자일로 192,실외,건물주변,127.1062952,37.3673828
아마노 분당뉴본타워 주차장,성남시 분당구,경기 성남시 분당구 정자일로156번길 6,실내,지하,127.1061469,37.36387794
SPG센터 주차장,성남시 분당구,경기 성남시 분당구 정자일로 166,실내,지하,127.106242,37.36486538
푸르지오시티2차 주차장,성남시 분당구,경기 성남시 분당구 정자일로 197,실내,지하,127.105632,37.3678303
푸르지오시티 주차장,성남시 분당구,경기 성남시 분당구 정자일로 197,실내,지상,127.105703,37.36773023
정자3동 행정복지센터 주차장,성남시 분당구,경기 성남시 분당구 정자동 201,실외,건물주변,127.1194954,37.36092696
석우재빌딩 주차장,성남시 분당구,경기 성남시 분당구 성남대로331번길 9-9,실내,지상,127.107093,37.36478713
아데나팰리스 주차장,성남시 분당구,경기 성남시 분당구 성남대로 275,미분류,미분류,127.1076158,37.36089061
젤존타워2 주차장,성남시 분당구,경기 성남시 분당구 정자일로 162,실내,지하,127.1062597,37.36461398
폴라리스II 주차장,성남시 분당구,경기 성남시 분당구 성남대로 389,실내,지상,127.10749,37.37085247
분당클리닉 주차장,성남시 분당구,경기 성남시 분당구 성남대로 385,실내,지하,127.1075122,37.37056052
신수빌딩 주차장,성남시 분당구,경기 성남시 분당구 성남대로343번길 12-2,미분류,미분류,127.1067392,37.36680574
쏘카존 이마트 분당점 별관 주차장,성남시 분당구,경기 성남시 분당구 정자동 212 지상 1층,실외,야외시설,127.1197722,37.35753341
쏘카존 정자전원마을 공영주차장,성남시 분당구,경기 성남시 분당구 불곡로13번길 6 지하 3층 '하' 구역,실내,지하,127.1242954,37.35908662
쏘카존 [부름호출존] 정자동공영주차장,성남시 분당구,경기 성남시 분당구 백현로144번길 31 지하 2층,,,127.1122083,37.37109227
쏘카존 백궁지엔느빌딩 주차장,성남시 분당구,경기 성남시 분당구 정자일로 227 지상 7층,실내,지상,127.1057038,37.3706964
월드비터 주차관리실,성남시 분당구,경기 성남시 분당구 정자로 13,실내,지상,127.1063239,37.363721
경남선경빌라 114동 지하1층 주차장 민방위대피소,성남시 분당구,경기 성남시 분당구 황새울로132번길 27,실내,지하,127.1123693,37.37384745
정자동공영주차장 전기차충전소,성남시 분당구,경기 성남시 분당구 황새울로116번길 19-8 지하1층주차장 구석(화장실 옆),실내,지하,127.112223,37.37109135
경기성남 정자역 환승주차장 전기차충전소,성남시 분당구,경기 성남시 분당구 성남대로331번길 6 지하3층 지하주차장 3대,실내,지하,127.1073315,37.36575191
금곡공원 국민체육센터부설주차장 전기차충전소,성남시 분당구,경기 성남시 분당구 금곡로 298,실외,건물주변,127.1093753,37.35678572
분당파크뷰 지하1층 주차장 민방위대피소,성남시 분당구,경기 성남시 분당구 정자일로 248,실내,지하,127.1052558,37.37486945
정자프라자 지하2층~3층 주차장 민방위대피소,성남시 분당구,경기 성남시 분당구 내정로113번길 4,실내,지하,127.1148609,37.37077797
샘물교회 지하2층~4층 주차장 민방위대피소,성남시 분당구,경기 성남시 분당구 내정로17번길 8,실내,지하,127.1137727,37.36188048
정자역환승주차장 전기차충전소,성남시 분당구,경기 성남시 분당구 성남대로331번길 6 지하 3층 B3 D기둥 주변,실내,지하,127.1073315,37.36575191
정자전원마을 공영주차장 지하1층~3층 민방위대피소,성남시 분당구,경기 성남시 분당구 불곡로13번길 6,실내,지하,127.1245112,37.35921975
상록마을 라이프 아파트 103동 앞 지하1층 주차장 민방위대피소,성남시 분당구,경기 성남시 분당구 정자로 56,실내,지하,127.1120227,37.36246152
정자전원마을공영주차장 전기차충전소,성남시 분당구,경기 성남시 분당구 불곡로13번길 6 ( B1 좌측 끝 위치 ),실내,지하,127.1241959,37.35900023
한솔마을 한일아파트 303동 지하1층 주차장 민방위대피소,성남시 분당구,경기 성남시 분당구 백현로 234,실내,지하,127.1208334,37.36678318
정든마을 동아1단지아파트 104동 앞 지하주차장 1층 민방위대피소,성남시 분당구,경기 성남시 분당구 불정로 141,실내,지하,127.1203745,37.35939973
상록마을 임광보성아파트 지하1층 주차장 민방위대피소,성남시 분당구,경기 성남시 분당구 정자일로 80,실내,지하,127.1063306,37.35728046
정든마을 한진6단지아파트 601동 앞 지하주차장 1층 민방위대피소,성남시 분당구,경기 성남시 분당구 내정로 24,실내,지하,127.1150226,37.36211985
상록마을 우성아파트 323동 앞 지하1층 주차장 민방위대피소,성남시 분당구,경기 성남시 분당구 내정로 55,실내,지하,127.113169,37.36579692
백궁지엔느주차전용빌딩 전기차충전소,성남시 분당구,경기 성남시 분당구 정자일로 227 백궁지엔느주차전용빌딩,실내,지상,127.1056033,37.37070821
백궁지엔느주차전용빌딩 전기차충전소,성남시 분당구,경기 성남시 분당구 정자일로 227 백궁지엔느주차전용빌딩,실내,지상,127.1056033,37.37070821
백궁지엔느주차전용빌딩 전기차충전소,성남시 분당구,경기 성남시 분당구 정자일로 227 백궁지엔느주차전용빌딩,실내,지하,127.1056033,37.37070821
백궁지엔느주차전용빌딩 전기차충전소,성남시 분당구,경기 성남시 분당구 정자일로 227 백궁지엔느주차전용빌딩,실내,지하,127.1056033,37.37070821
정든마을동아1단지2(2주차장 106동) 전기차충전소,성남시 분당구,"경기 성남시 분당구 불정로 141 (정자동, 정든마을)",실내,지하,127.1205101,37.36014474
정든마을동아1단지1(1주차장 107동) 전기차충전소,성남시 분당구,"경기 성남시 분당구 불정로 141 (정자동, 정든마을)",실외,건물주변,127.1206107,37.35952563
서현역환승 공영주차장,성남시 분당구,경기 성남시 분당구 황새울로360번길 43,실내,지하,127.1240448,37.3844129
분당제생병원 본관 주차장,성남시 분당구,경기 성남시 분당구 서현로180번길 20,실내,지상,127.1215357,37.38855571
분당제생병원 본관 주차장,성남시 분당구,경기 성남시 분당구 서현로180번길 20,실내,지하,127.1215357,37.38855571
비전월드 주차장,성남시 분당구,경기 성남시 분당구 서현로180번길 19,실내,지상,127.1227352,37.38735521
하이파킹 분당비전월드,성남시 분당구,경기 성남시 분당구 서현로180번길 19,실내,지하,127.1226989,37.38723631
AK플라자 분당 주차장,성남시 분당구,경기 성남시 분당구 황새울로360번길 42,실내,지하,127.122791,37.38489626
분당제생병원 별관 주차장,성남시 분당구,경기 성남시 분당구 황새울로341번길 23,실내,지하,127.1213285,37.38755308
점골공영주차장,성남시 분당구,경기 성남시 분당구 불정로 419,실내,지하,127.1400375,37.37679041
서머셋 센트럴 분당 호텔 주차장,성남시 분당구,경기 성남시 분당구 황새울로311번길 36,실내,지하,127.1212312,37.38669631
세현주차빌딩,성남시 분당구,경기 성남시 분당구 황새울로 348,실내,지상,127.1238473,37.38657466
AK플라자 분당 B주차장,성남시 분당구,경기 성남시 분당구 성남대로 지하 601,실내,지하,127.1234303,37.38501453
메가박스 분당 주차장,성남시 분당구,경기 성남시 분당구 황새울로 332,실내,지하,127.1221912,37.3854483
빨간뻘낙지 주차장,성남시 분당구,경기 성남시 분당구 서현동 194-2,실외,건물주변,127.1351163,37.38510357
만강홍 주차장,성남시 분당구,경기 성남시 분당구 황새울로 337,실내,지하,127.1224308,37.38628511
서울나우병원 주차장,성남시 분당구,경기 성남시 분당구 분당로 43 지하1층~지하4층,실내,지하,127.1204467,37.38405621
나이스파크 분당타워갤러리 주차장,성남시 분당구,경기 성남시 분당구 황새울로 321,실내,지하,127.1212109,37.38531867
서현1동 행정복지센터 주차장,성남시 분당구,경기 성남시 분당구 서현동 89-1,골목길,상가,127.1262847,37.3828833
성남시 서현도서관 주차장,성남시 분당구,경기 성남시 분당구 중앙공원로 77,실외,건물주변,127.1321813,37.38366074
AK플라자 분당 A주차장,성남시 분당구,경기 성남시 분당구 황새울로360번길 42 지하5~2층,실내,지하,127.1231789,37.38521752
한국정보공학 본사사옥 주차장,성남시 분당구,경기 성남시 분당구 서현동 253-4,실내,지상,127.1235893,37.38761742
LG에클라트2차 주차장,성남시 분당구,경기 성남시 분당구 서현로 204,실내,지하,127.1251227,37.38711158
AK플라자 분당 C주차장,성남시 분당구,경기 성남시 분당구 황새울로312번길 36,실내,지상,127.1233598,37.38399194
서현궁 본점 주차장,성남시 분당구,경기 성남시 분당구 서현동 195-2,실외,건물주변,127.134596,37.3846104
만강 주차장,성남시 분당구,경기 성남시 분당구 돌마로 582 1층,실외,야외시설,127.1389891,37.38500177
한서빌딩 주차장,성남시 분당구,경기 성남시 분당구 황새울로360번길 25,실외,건물주변,127.1253801,37.38552065
야베스벨리빌딩 주차장,성남시 분당구,경기 성남시 분당구 서현로 192,실내,지상,127.1244218,37.38777422
성지하이츠텔 주차장,성남시 분당구,경기 성남시 분당구 서현로210번길 2,실내,지하,127.1254602,37.38680993
어반포트 서현265 KT&G분당 주차장,성남시 분당구,경기 성남시 분당구 황새울로312번길 26,실내,지하,127.1226645,37.38342952
코코프라자 주차장,성남시 분당구,경기 성남시 분당구 서현로210번길 20,실내,지하,127.1240575,37.3860077
서현파크프라자 주차장,성남시 분당구,경기 성남시 분당구 서현동 89,실외,건물주변,127.1256215,37.38333451
까사미아분당점 주차장,성남시 분당구,경기 성남시 분당구 황새울로 354,실내,지하,127.1239831,37.38675563
분당퍼스트타워 주차장,성남시 분당구,경기 성남시 분당구 분당로 55,실내,지하,127.1214816,37.38302799
하이파킹 서현빌딩 주차장,성남시 분당구,경기 성남시 분당구 황새울로 326,실내,지하,127.1218542,37.38513149
안집 한옥반점 공용주차장,성남시 분당구,경기 성남시 분당구 서현동 136-12,실외,건물주변,127.1362969,37.38361282
강남면옥 분당점 주차장,성남시 분당구,경기 성남시 분당구 새마을로 5,골목길,상가,127.1311582,37.38428269
아우디_분당 전시장 서비스센터 주차장,성남시 분당구,경기 성남시 분당구 새마을로 31,실외,건물주변,127.1341148,37.38389463
서현2동 행정복지센터 노상주차장,성남시 분당구,경기 성남시 분당구 서현동 295,실외,노상,127.1345837,37.37587229
대현빌딩 주차장,성남시 분당구,경기 성남시 분당구 황새울로 315,실외,건물주변,127.1203152,37.38514118
신영팰리스타워 주차장,성남시 분당구,경기 성남시 분당구 황새울로360번길 21,실내,지상,127.125709,37.38570141
케이엠파크 미래에셋플레이스 주차장,성남시 분당구,경기 성남시 분당구 황새울로359번길 11,실내,지하,127.1234314,37.3877185
효자촌프라자 주차장,성남시 분당구,경기 성남시 분당구 돌마로 478,실내,지하,127.1334351,37.37693139
서원플라자,성남시 분당구,경기 성남시 분당구 분당로53번길 11,미분류,미분류,127.1215533,37.38406679
시범단지삼성 한신아파트 상가동 주차장,성남시 분당구,경기 성남시 분당구 중앙공원로 53,실외,건물주변,127.1290885,37.3829947
월페이퍼 주차장,성남시 분당구,경기 성남시 분당구 서현동 51,실외,노외,127.1416284,37.38344888
스타벅스 분당구청점 주차장,성남시 분당구,경기 성남시 분당구 서현동 267-3,실외,건물주변,127.120386,37.38421756
N타운빌딩 주차장,성남시 분당구,경기 성남시 분당구 황새울로335번길 5,실내,지하,127.1216987,37.38604799
보람코아 주차장,성남시 분당구,경기 성남시 분당구 서현로210번길 1,실내,지하,127.1259271,37.38645083
서현리더스빌딩 주차장,성남시 분당구,경기 성남시 분당구 황새울로311번길 14,실내,지하,127.1196813,37.38559053
나이스파크 우리은행 분당중앙금융센터 주차장,성남시 분당구,경기 성남시 분당구 황새울로 346,실내,지하,127.1233432,37.38629497
유성트윈프라자 주차장,성남시 분당구,경기 성남시 분당구 서현로210번길 16,골목길,상가,127.1242835,37.38609396
금화빌딩 주차장,성남시 분당구,경기 성남시 분당구 황새울로360번길 19,실내,지하,127.1259183,37.38589941
농협협동조합중앙회 주차장,성남시 분당구,경기 성남시 분당구 분당로53번길 3,실내,지하,127.1209065,37.38350251
시그마타워 주차장,성남시 분당구,경기 성남시 분당구 황새울로 307,실내,지상,127.1198161,37.38446411
하이파킹 센터포인트서현점,성남시 분당구,경기 성남시 분당구 황새울로360번길 27,실내,지하,127.1252534,37.3853595
평양면옥 주차장,성남시 분당구,경기 성남시 분당구 서현동 203-1,실외,건물주변,127.1346702,37.38511489
서현유스센터 주차장,성남시 분당구,경기 성남시 분당구 불정로386번길 38,실내,지상,127.1398754,37.37217014
여암빌딩 주차장,성남시 분당구,경기 성남시 분당구 황새울로351번길 10,실내,지하,127.1230461,37.38759906
신영G타워 주차장,성남시 분당구,경기 성남시 분당구 황새울로 318,실내,지상,127.1212438,37.38470504
삼성생명 주차장,성남시 분당구,경기 성남시 분당구 서현로 200,실내,지하,127.1249372,37.38737453
서현지엔느오피스텔 지하주차장,성남시 분당구,경기 성남시 분당구 중앙공원로39번길 49,실내,지하,127.1249198,37.38367765
분당오벨리스크 주차장,성남시 분당구,경기 성남시 분당구 서현동 245-1,실외,건물주변,127.1259612,37.38616643
서현프라자 주차장,성남시 분당구,경기 성남시 분당구 서현로180번길 13,실내,지하,127.1228906,37.38778303
금호리빙스텔 주차장,성남시 분당구,경기 성남시 분당구 황새울로342번길 11,미분류,미분류,127.1236694,37.38621624
아름빌딩 주차장,성남시 분당구,경기 성남시 분당구 서현로180번길 26,실내,지하,127.1212682,37.38725581
삼보프라자 주차장,성남시 분당구,경기 성남시 분당구 황새울로360번길 26,미분류,미분류,127.1250634,37.38584265
토탈파킹주차장,성남시 분당구,경기 성남시 분당구 서현동 261-1,실내,지하,127.1212523,37.38648094
분당풍림아이원플러스오피스텔 주차장 입구,성남시 분당구,경기 성남시 분당구 서현로 170,실내,지하,127.1224272,37.38823312
분당풍림아이원플러스오피스텔 주차장 출구,성남시 분당구,경기 성남시 분당구 서현동 255-1,실내,지하,127.1216379,37.38893403
쏘카존 스카이파크 호텔주차장,성남시 분당구,경기 성남시 분당구 황새울로311번길 36 지하 5층,실내,지하,127.1213539,37.38645381
쏘카존 우성프라자 주차장,성남시 분당구,경기 성남시 분당구 돌마로 481 지하 3층,실내,지하,127.1330641,37.37781481
쏘카존 AK플라자 분당 B주차장,성남시 분당구,경기 성남시 분당구 성남대로 지하 601 지하 4층 B 주차장,실내,지하,127.1230859,37.38425803
투루카 한길렌트카 앞 주차장,성남시 분당구,경기 성남시 분당구 새마을로51번길 9-3,실외,야외시설,127.1362447,37.38408141
투루카 서현역5번출구(비전월드주차장6층),성남시 분당구,경기 성남시 분당구 서현로180번길 19 6층,실내,지상,127.1224461,37.38735911
"시범현대 410~412,426~429동 지하1층 주차장 민방위대피소",성남시 분당구,경기 성남시 분당구 중앙공원로 20,실내,지하,127.1290727,37.37903021
점골 공영주차장 전기차충전소,성남시 분당구,경기 성남시 분당구 불정로 419 (B2 2-23 기둥),실내,지하,127.1401895,37.37718217
서현역환승주차장 전기차충전소,성남시 분당구,경기 성남시 분당구 황새울로360번길 43 지하 3층 307기둥 주변,실내,지하,127.1237204,37.38426097
서현역환승주차장 전기차충전소,성남시 분당구,경기 성남시 분당구 황새울로360번길 43 지하3층 전기실 앞 벽면 (6기),미분류,미분류,127.1237204,37.38426097
분당 올림픽스포츠센터 주차장 (지하2층~지하3층) 민방위대피소,성남시 분당구,경기 성남시 분당구 중앙공원로 35,실내,지하,127.1289471,37.38085042
범한프라자 주차장(지하2층~지하3층) 민방위대피소,성남시 분당구,경기 성남시 분당구 서현동 312-3,실내,지하,127.1393802,37.37181392
효자촌 현대아파트 101동~114동 앞 지하1층 주차장 민방위대피소,성남시 분당구,경기 성남시 분당구 분당로201번길 17,실내,지하,127.1327949,37.37625274
서현파크프라자 지하주차장 (지하1층~지하4층) 민방위대피소,성남시 분당구,경기 성남시 분당구 중앙공원로31번길 42,실외,건물주변,127.125567,37.38314446
"효자촌 임광아파트 307동,315동 앞 지하1층 주차장 민방위대피소",성남시 분당구,경기 성남시 분당구 불정로 397,실내,지하,127.1379945,37.37588097
율동공원 A주차장,성남시 분당구,경기 성남시 분당구 문정로 145,실외,야외시설,127.1496449,37.38323177
스타벅스 분당율동공원점 주차장,성남시 분당구,경기 성남시 분당구 율동 300,실외,건물주변,127.1500188,37.38385751
성남 영어마을 주차장1,성남시 분당구,경기 성남시 분당구 율동 196-4,실외,야외시설,127.1562545,37.3895466
성남영어마을 주차장3,성남시 분당구,경기 성남시 분당구 새마을로 257,실외,야외시설,127.1590255,37.39272531
엘레멘츠 주차장,성남시 분당구,경기 성남시 분당구 새마을로165번길 17,실외,건물주변,127.1490269,37.3847769
율동공원A주차장 전기차충전소,성남시 분당구,경기 성남시 분당구 문정로 145 출구 쪽,실외,야외시설,127.1500785,37.38324293
율동공원A공영주차장 전기차충전소,성남시 분당구,경기 성남시 분당구 문정로 145 지상주차장,실외,야외시설,127.1500115,37.38303308
매송중학교 주차장,성남시 분당구,경기 성남시 분당구 탄천로 49,실외,건물주변,127.1232685,37.39717399
이매2동 행정복지센터 주차장,성남시 분당구,경기 성남시 분당구 이매동 138,실외,건물주변,127.1216901,37.39956694
갈보리교회 주차장2,성남시 분당구,경기 성남시 분당구 이매로 132,실외,야외시설,127.1337171,37.39073835
스타벅스 분당이매 주차장,성남시 분당구,경기 성남시 분당구 이매로 15,골목길,상가,127.1224102,37.39509623
이매고등학교 주차장,성남시 분당구,경기 성남시 분당구 탄천로 1,실외,건물주변,127.1216018,37.39313013
주차장,성남시 분당구,경기 성남시 분당구 이매동 360-4,실외,노외,127.1335687,37.39113497
아름마을 태영아파트 302동앞 지하1층 주차장 민방위대피소,성남시 분당구,경기 성남시 분당구 판교로 430,실내,지하,127.1215835,37.40485874
분당청소년경찰학교 주차장,성남시 분당구,경기 성남시 분당구 이매동 139,실외,건물주변,127.1217813,37.39940105
노상주차장,성남시 분당구,경기 성남시 분당구 이매동 152-3,실외,노상,127.1225357,37.40490551
제일프라자상가 주차장,성남시 분당구,경기 성남시 분당구 판교로 432,골목길,상가,127.1218017,37.40499637
우일프라자 주차장,성남시 분당구,경기 성남시 분당구 이매동 131-6,골목길,상가,127.1229199,37.40500422
한풍상가 전용주차장,성남시 분당구,경기 성남시 분당구 이매동 137-2,골목길,상가,127.1223464,37.39963474
NH농협은행 이매동지점,성남시 분당구,경기 성남시 분당구 성남대로779번길 19,실외,건물주변,127.1261907,37.39891078
이매포스파크103동 지하1층 주차장 민방위대피소,성남시 분당구,경기 성남시 분당구 이매로123번길 12,실내,지하,127.1352945,37.39193312
이매포스파크(경로당 앞 지상주차장) 전기차충전소,성남시 분당구,경기 성남시 분당구 이매로123번길 12,실내,지상,127.1352975,37.39169344
이매촌 삼성아파트 1009동 지하1층 주차장 민방위대피소,성남시 분당구,경기 성남시 분당구 양현로 220,실내,지하,127.1271973,37.40242188
이매촌 성지아파트 703동 지하1층 주차장 민방위대피소,성남시 분당구,경기 성남시 분당구 이매로 54,실내,지하,127.1273306,37.39445311
아름마을 삼호아파트 409동앞 지하1층 주차장 민방위대피소,성남시 분당구,경기 성남시 분당구 탄천로 95,실내,지하,127.1234443,37.40111938
이매촌 동신아파트 906동 지하1층 주차장 민방위대피소,성남시 분당구,경기 성남시 분당구 양현로166번길 20,실내,지하,127.1270754,37.39847194
이매촌 한신아파트 208동 지하1층 주차장 민방위대피소,성남시 분당구,경기 성남시 분당구 서현로 181,실내,지하,127.1271256,37.38802814
KT분당지사 지하1층 주차장 민방위대피소,성남시 분당구,경기 성남시 분당구 성남대로779번길 6,실내,지하,127.1280254,37.39987741
이매촌 동부아파트 501동 지하1층 주차장 민방위대피소,성남시 분당구,경기 성남시 분당구 양현로 88,실내,지하,127.1243277,37.39166133
이매촌 청구아파트 603동 지하1층 주차장 민방위대피소,성남시 분당구,경기 성남시 분당구 양현로94번길 29,실내,지하,127.1267218,37.39234177
아름마을 효성아파트 706동앞 지하1층 주차장 민방위대피소,성남시 분당구,경기 성남시 분당구 이매로 16,실내,지하,127.1224387,37.39459162
아름마을 선경아파트 603동 앞 지하1층 주차장 민방위대피소,성남시 분당구,경기 성남시 분당구 이매로 11,실내,지하,127.1220276,37.39529124
성남종합버스터미널 주차장,성남시 분당구,경기 성남시 분당구 성남대로925번길 16,실내,지상,127.1263916,37.41294755
맛고을공영주차장,성남시 분당구,경기 성남시 분당구 야탑동 385,실내,지하,127.1318435,37.41193696
야탑제1환승 공영주차장,성남시 분당구,경기 성남시 분당구 성남대로 920,실내,지하,127.1293928,37.41153061
야탑제2환승 공영주차장,성남시 분당구,경기 성남시 분당구 성남대로 919,실내,지하,127.1278894,37.41155477
바른세상병원 본관 주차장,성남시 분당구,경기 성남시 분당구 야탑로75번길 5,실내,지상,127.1268548,37.41027374
분당차병원 난임센터 주차장,성남시 분당구,경기 성남시 분당구 야탑동 502,실외,건물주변,127.1252955,37.40931401
탄천종합운동장 주차장1,성남시 분당구,경기 성남시 분당구 탄천로 215,실외,건물주변,127.1191202,37.40921407
탄천종합운동장 주차장2,성남시 분당구,경기 성남시 분당구 탄천로 215,실외,야외시설,127.1193394,37.4106663
성남시공용주차장,성남시 분당구,경기 성남시 분당구 탄천로 215,실내,지상,127.120575,37.41130927
분당척병원 주차장,성남시 분당구,경기 성남시 분당구 성남대로 932,실내,지하,127.1292562,37.41290121
성남아트센터 오페라하우스 주차장,성남시 분당구,경기 성남시 분당구 성남대로 808,실내,지하,127.1305425,37.40295975
성남아트센터 오페라하우스 주차장,성남시 분당구,경기 성남시 분당구 성남대로 808,실내,지상,127.1305425,37.40295975
성남아트센터 주차장,성남시 분당구,경기 성남시 분당구 성남대로 808,실외,야외시설,127.1290145,37.40105126
성남시 차량등록사업소 주차장,성남시 분당구,경기 성남시 분당구 야탑로 327,실외,건물주변,127.1538189,37.40679173
야탑1동 행정복지센터 주차장,성남시 분당구,경기 성남시 분당구 장미로86번길 18,골목길,상가,127.1302352,37.41204957
분당차병원 주차장1,성남시 분당구,경기 성남시 분당구 야탑로65번길 11,실외,야외시설,127.124995,37.40993964
분당차병원 주차장2,성남시 분당구,경기 성남시 분당구 야탑로65번길 11,실외,건물주변,127.1255841,37.41100582
코리아디자인센터 주차장,성남시 분당구,경기 성남시 분당구 야탑동 344-1,실외,야외시설,127.1236568,37.41354512
야탑2동 행정복지센터 노상주차장,성남시 분당구,경기 성남시 분당구 야탑동 508,실외,건물주변,127.1272227,37.40941197
갯마을해물요리 분당점 주차장,성남시 분당구,경기 성남시 분당구 성남대로858번길 4,실외,건물주변,127.1291766,37.40604994
세신빌딩 유료주차장,성남시 분당구,경기 성남시 분당구 야탑로 95,미분류,미분류,127.1293102,37.41018458
아미고타워 지하주차장,성남시 분당구,경기 성남시 분당구 야탑로81번길 10,실내,지하,127.12819,37.4103651
아미고개발,성남시 분당구,경기 성남시 분당구 야탑로81번길 10,미분류,미분류,127.1282097,37.41059844
우송프라자 주차장,성남시 분당구,경기 성남시 분당구 성남대로926번길 20,미분류,미분류,127.1299795,37.41311936
감미옥 본점 주차장,성남시 분당구,경기 성남시 분당구 야탑동 537-7,실외,건물주변,127.1229747,37.4088335
에이스코아빌딩 주차장,성남시 분당구,경기 성남시 분당구 야탑로 64,실외,노외,127.1259917,37.4095151
분당구보건소 주차장,성남시 분당구,경기 성남시 분당구 양현로 306,실외,건물주변,127.1244679,37.41089167
BYC빌딩 주차장,성남시 분당구,경기 성남시 분당구 성남대로 912,실내,지상,127.1292076,37.41090731
청담추어정 주차장,성남시 분당구,경기 성남시 분당구 야탑동 599-4,실외,건물주변,127.1346455,37.40727374
야탑시장 주차장,성남시 분당구,경기 성남시 분당구 야탑로 72,실내,지상,127.1268512,37.40948355
야탑리더스 주차장,성남시 분당구,경기 성남시 분당구 장미로 42,실내,지상,127.1251409,37.41345706
분당차병원 본관 주차장,성남시 분당구,"경기 성남시 분당구 야탑로 59 지하4층,1-4층",실내,지하,127.1249984,37.40995135
관보골든쇼핑스포츠빌딩 주차장,성남시 분당구,경기 성남시 분당구 성남대로916번길 5,실내,지하,127.1297619,37.41140947
나이스파크 국민은행 야탑역지점,성남시 분당구,경기 성남시 분당구 야탑동 367-3,실외,건물주변,127.1294068,37.41052686
NC백화점 야탑점 주차장,성남시 분당구,경기 성남시 분당구 야탑로81번길 11,실내,지하,127.127476,37.41092811
노상공영주차장,성남시 분당구,경기 성남시 분당구 야탑동 198-1,실외,노상,127.1529668,37.40486195
앤즈빌오피스텔 주차장,성남시 분당구,경기 성남시 분당구 장미로48번길 14,실내,지하,127.1251894,37.4127398
야탑유스센터 주차장,성남시 분당구,경기 성남시 분당구 야탑동 262,실내,지하,127.1416367,37.4100344
상희공원 주차장,성남시 분당구,경기 성남시 분당구 야탑동 324-1,미분류,미분류,127.1408253,37.41164819
노블리치오피스텔B동 주차장,성남시 분당구,경기 성남시 분당구 야탑로 103,실내,지하,127.1301325,37.41014763
세계로마트 야탑점 주차장,성남시 분당구,경기 성남시 분당구 벌말로 32,실내,지상,127.1386553,37.41096238
대우빌딩 주차장,성남시 분당구,경기 성남시 분당구 야탑로65번길 6,실내,지상,127.1261985,37.4102438
보배반점 야탑직영점 주차장,성남시 분당구,경기 성남시 분당구 장미로92번길 14,골목길,상가,127.13069,37.41248787
에스디파킹,성남시 분당구,경기 성남시 분당구 양현로 322,실외,건물주변,127.1232868,37.41319681
서일빌딩 주차장,성남시 분당구,경기 성남시 분당구 성남대로916번길 7,실내,지하,127.1296856,37.41104914
금탑프라자 주차장,성남시 분당구,경기 성남시 분당구 성남대로926번길 12,실외,건물주변,127.1298751,37.41283205
글라스타워 주차장,성남시 분당구,경기 성남시 분당구 성남대로916번길 11,실내,지상,127.1298106,37.41083907
현대ANC프라자 주차장,성남시 분당구,경기 성남시 분당구 성남대로925번길 11,실내,지하,127.1268749,37.41216675
한국전자기술연구원 주차장2,성남시 분당구,경기 성남시 분당구 새나리로 25,실외,야외시설,127.1592294,37.40369947
분당차병원 주차장,성남시 분당구,경기 성남시 분당구 야탑로65번길 16,실내,지하,127.1263613,37.41101941
노상 공영주차장,성남시 분당구,경기 성남시 분당구 야탑동 553-2,실외,노상,127.1221986,37.40599609
노블리치오피스텔A동 주차장,성남시 분당구,경기 성남시 분당구 성남대로916번길 20,실내,지하,127.129771,37.41015434
성남시평생학습원 주차장,성남시 분당구,경기 성남시 분당구 판교로 546,실외,야외시설,127.1348313,37.40566701
도서관사업소 주차관제실,성남시 분당구,경기 성남시 분당구 판교로 546,미분류,미분류,127.1340934,37.4067761
평생학습원내 여성문화복지회관 지하1층 주차장 민방위대피소,성남시 분당구,경기 성남시 분당구 판교로 546,실내,지하,127.1344113,37.40516652
대덕프라자 주차장,성남시 분당구,경기 성남시 분당구 야탑동 361-5,실내,지하,127.1296596,37.41232141
금호프라자 주차장,성남시 분당구,경기 성남시 분당구 야탑로75번길 9,실내,지하,127.1269113,37.41096926
다원기술비스퀘어 주차장,성남시 분당구,경기 성남시 분당구 야탑로105번길 18,실내,지하,127.1306995,37.41145439
주차박사,성남시 분당구,경기 성남시 분당구 성남대로925번길 37,실내,지상,127.1245613,37.41200343
대경오피스텔 주차장,성남시 분당구,경기 성남시 분당구 벌말로 43,실외,건물주변,127.1380921,37.41182081
뉴시티빌딩 주차장,성남시 분당구,경기 성남시 분당구 양현로310번길 25,미분류,미분류,127.127039,37.411653
성남시평생학습원 주차장1,성남시 분당구,경기 성남시 분당구 판교로562번길 17,실외,야외시설,127.1348731,37.40571201
목련마을대원아파트 지하주차장,성남시 분당구,경기 성남시 분당구 야탑로245번길 11,실내,지하,127.1450882,37.40807861
성남시평생학습원 주차장3,성남시 분당구,경기 성남시 분당구 판교로 548,실외,야외시설,127.1341608,37.40656699
대진아파트 지하주차장,성남시 분당구,경기 성남시 분당구 판교로 654,실내,지하,127.1449333,37.40510543
야탑제2환승 공영주차장 야탑2호관리사무실,성남시 분당구,경기 성남시 분당구 야탑로69번길 24-8,골목길,상가,127.1276455,37.41162351
쏘카존 맛고을공영주차장,성남시 분당구,경기 성남시 분당구 야탑로111번길 12-14 지하 3층,실내,지하,127.1317809,37.41165592
쏘카존 새벽회어시장 주차장,성남시 분당구,경기 성남시 분당구 야탑로105번길 18 지하 1층,실내,지하,127.1306961,37.41145169
쏘카존 [부름호출존]성남아트센터 부설주차장,성남시 분당구,경기 성남시 분당구 성남대로 808 지상 1층,실외,건물주변,127.131538,37.40262256
맛고을 공영주차장 전기차충전소,성남시 분당구,경기 성남시 분당구 야탑로111번길 12-14 지하 주차장,실내,지하,127.1318604,37.41191172
경기성남 야탑 제1 환승주차장 전기차충전소,성남시 분당구,경기 성남시 분당구 성남대로 920 지하3층 지하주차장 1대,실내,지하,127.1291723,37.41206966
탄천종합운동장(보조경기장 지하주차장) 전기차충전소,성남시 분당구,경기 성남시 분당구 탄천로 215 주차요금 징수소 우측,실내,지하,127.1200562,37.41251356
경기성남 맛고을 공영주차장 전기차충전소,성남시 분당구,경기 성남시 분당구 야탑로111번길 12-14 지상1층 지하주차장 3대,실내,지하,127.1317843,37.41165862
투아이센터 지하1층 주차장 민방위대피소,성남시 분당구,경기 성남시 분당구 벌말로50번길 41,실내,지하,127.1432781,37.41190294
야탑제2환승공영주차장 전기차충전소,성남시 분당구,경기 성남시 분당구 성남대로 919 B2 E기둥(B2 주차장 안쪽),실내,지하,127.1281653,37.4117581
성남아트센터 옥외주차장 전기차충전소,성남시 분당구,경기 성남시 분당구 성남대로 808 지상야외주차장,실외,야외시설,127.1290085,37.39955557
야탑역 제1환승공영주차장 전기차충전소,성남시 분당구,경기 성남시 분당구 성남대로 920 B3 진입 후 우측 위치,실내,지하,127.1290588,37.41175443
경기성남 야탑 제2 환승주차장 전기차충전소,성남시 분당구,경기 성남시 분당구 성남대로 919 지하3층 지하주차장 2대,실내,지하,127.1281653,37.4117581
탑마을 벽산아파트 모든 동의 지하1층 주차장 민방위대피소,성남시 분당구,경기 성남시 분당구 야탑로 124,실내,지하,127.1315693,37.40889723
목련마을 한신아파트 모든 동의 지하1층 주차장 민방위대피소,성남시 분당구,경기 성남시 분당구 판교로 627,실내,지하,127.142775,37.40689748
매화마을 2단지 모든 동의 지하1층 주차장 민방위대피소,성남시 분당구,경기 성남시 분당구 장미로 139,실내,지하,127.136744,37.4146723
성남아트센터 지하주차장 03기둥 전기차충전소,성남시 분당구,경기 성남시 분당구 성남대로 808 지하주차장 03번기둥 우측,실내,지하,127.1310545,37.40316912
탑마을 대우아파트 모든 동의 지하1층 주차장 민방위대피소,성남시 분당구,경기 성남시 분당구 판교로 421,실내,지하,127.1225025,37.40670038
탑마을 타워빌아파트 모든 동의 지하1층 주차장 민방위대피소,성남시 분당구,경기 성남시 분당구 양현로 272,실내,지하,127.1262832,37.40894174
분당차병원 지하1층~지하4층 주차장 민방위대피소,성남시 분당구,경기 성남시 분당구 야탑로 59,실내,지하,127.1255141,37.41034184
목련마을 한일아파트 모든 동의 지하1층 주차장 민방위대피소,성남시 분당구,경기 성남시 분당구 판교로 645,실내,지하,127.1442224,37.40659479
탑마을 선경아파트 모든 동의 지하1층~지하2층 주차장 민방위대피소,성남시 분당구,경기 성남시 분당구 야탑로 20,실내,지하,127.1231412,37.40775571
탑마을 경남아파트 모든 동의 지하1층 주차장 민방위대피소,성남시 분당구,경기 성남시 분당구 판교로 519,실내,지하,127.1313448,37.40709995
목련마을 영남아파트 모든 동의 지하1층 주차장 민방위대피소,성남시 분당구,경기 성남시 분당구 판교로 669,실내,지하,127.1465526,37.40605581
금곡동공영주차장,성남시 분당구,경기 성남시 분당구 금곡동 169,실외,노외,127.1067978,37.35079624
미금파크 유료주차장,성남시 분당구,경기 성남시 분당구 성남대로172번길 24,실내,지하,127.1114108,37.35097579
미금파크 상가동주차장,성남시 분당구,경기 성남시 분당구 성남대로172번길 24,실내,지상,127.1114952,37.35074145
유치회관 분당직영점 주차장,성남시 분당구,경기 성남시 분당구 대왕판교로 140,실외,야외시설,127.1022001,37.35612357
코오롱트리폴리스 A동 주차장,성남시 분당구,경기 성남시 분당구 정자일로 1,실내,지상,127.1050253,37.3504248
코오롱트리폴리스 지하1층 주차장 민방위대피소,성남시 분당구,경기 성남시 분당구 정자일로 1,실내,지하,127.1053835,37.35074705
도넛드로잉 주차장,성남시 분당구,경기 성남시 분당구 대왕판교로 103,실외,야외시설,127.1007416,37.35263604
보바스기념병원 주차장,성남시 분당구,경기 성남시 분당구 대왕판교로 155-7,실외,건물주변,127.0981656,37.35581794
금산젬월드 주차장,성남시 분당구,경기 성남시 분당구 돌마로 67,실내,지상,127.1095084,37.35049642
한국프라자 주차장,성남시 분당구,경기 성남시 분당구 성남대로 170,실내,지상,127.1097542,37.35113682
K헤밍웨이카페 주차장,성남시 분당구,경기 성남시 분당구 대왕판교로34번길 21,실외,건물주변,127.102482,37.34845378
천사의도시 1차 주차장,성남시 분당구,경기 성남시 분당구 성남대로 165,실내,지하,127.108292,37.35075523
이코노샤르망오피스텔 주차장,성남시 분당구,경기 성남시 분당구 돌마로 47,실내,지하,127.1074281,37.35041003
우방코아 주차장,성남시 분당구,경기 성남시 분당구 돌마로 73,실내,지상,127.1100115,37.3503617
현대아리온오피스텔 주차장,성남시 분당구,경기 성남시 분당구 성남대로172번길 12,실내,지하,127.1104368,37.35098752
구좌리 얼크니손칼국수 금곡점 주차장,성남시 분당구,경기 성남시 분당구 금곡동 56-3,실외,야외시설,127.0985956,37.36269062
골든벨리오피스텔 주차장,성남시 분당구,경기 성남시 분당구 성남대로171번길 9,실내,지하,127.1078321,37.3511485
천사의도시3 주차장,성남시 분당구,경기 성남시 분당구 정자일로6번길 13,실내,지상,127.1075809,37.35070633
미금프라자 주차장,성남시 분당구,경기 성남시 분당구 돌마로 75,실내,지하,127.110374,37.35045237
나이스파크 성남 대덕프라자2 주차장,성남시 분당구,경기 성남시 분당구 정자일로 25,실내,지하,127.1056804,37.35241008
나이스파크 미금동양프라자 주차장,성남시 분당구,경기 성남시 분당구 돌마로 85,실내,지하,127.1113413,37.3504839
미도프라자 주차장,성남시 분당구,경기 성남시 분당구 성남대로 168,실내,지하,127.1094965,37.35088838
메디파크빌딩 주차장,성남시 분당구,경기 성남시 분당구 돌마로 43,실외,건물주변,127.1066528,37.35040712
쏘카존 [부름호출존]금곡동공영주차장,성남시 분당구,경기 성남시 분당구 정자일로6번길 13 지상 1 층,실내,지상,127.1075393,37.35081719
쏘카존 미금파크주차빌딩,성남시 분당구,경기 성남시 분당구 성남대로172번길 24 지상 4층,실내,지상,127.1113974,37.35101725
금곡동공영주차장 (급) 전기차충전소,성남시 분당구,경기 성남시 분당구 성남대로171번길 17,실외,노외,127.1067369,37.35082062
금곡동 씨티밸리오피스텔 지하1층 주차장 민방위대피소,성남시 분당구,경기 성남시 분당구 성남대로171번길 17,실내,지하,127.1068141,37.35115033
YMCA 분당종합사회복지관 지하3층 주차장 민방위대피소,성남시 분당구,경기 성남시 분당구 정자일로 33,실내,지하,127.1055718,37.35300306
청솔마을 7단지 성원아파트 모든 동 지하1층 주차장 민방위대피소,성남시 분당구,경기 성남시 분당구 미금로 251,실내,지하,127.1094748,37.35223093
청솔마을 영남아파트 101~106동 지하1층 주차장 민방위대피소,성남시 분당구,경기 성남시 분당구 성남대로171번길 8,실내,지하,127.1081801,37.35215013
청솔마을 8단지 대원아파트 모든 동 지하1층 주차장 민방위대피소,성남시 분당구,경기 성남시 분당구 미금로 215,실내,지하,127.1125726,37.35046111
청솔마을 한라아파트 모든 동 지하1층 주차장 민방위대피소,성남시 분당구,경기 성남시 분당구 정자일로 72,실내,지하,127.1076033,37.35528353
청솔마을 화인아파트 모든 동 지하1층 주차장 민방위대피소,성남시 분당구,경기 성남시 분당구 정자일로 46,실내,지하,127.1070608,37.35401628
장수천한방민물장어 분당본점 주차장,성남시 분당구,경기 성남시 분당구 궁내동 210-6,실외,건물주변,127.1019396,37.36884359
스타벅스 분당궁내DT점 주차장,성남시 분당구,경기 성남시 분당구 궁내동 255-15,실외,건물주변,127.1020829,37.37042657
여기풍천민물장어 주차장,성남시 분당구,경기 성남시 분당구 궁내동 203-8,실외,건물주변,127.1019173,37.36738846
여수바다장어구이 주차장,성남시 분당구,경기 성남시 분당구 궁내동 239-3,실외,야외시설,127.100513,37.36826816
한독모터스비피에스전시장 주차장,성남시 분당구,경기 성남시 분당구 대왕판교로 321,실외,건물주변,127.1013259,37.37247976
BMW차징스테이션 한독모터스 분당전시장 주차장,성남시 분당구,경기 성남시 분당구 대왕판교로 331,실외,건물주변,127.1013868,37.37328883
중앙하이츠빌라 지하주차장,성남시 분당구,경기 성남시 분당구 궁내로40번길 11,실내,지하,127.09788,37.37055447
캠핑생활 성남198 프라이빗 파크 성남2주차장,성남시 분당구,경기 성남시 분당구 궁내동 198-31,실외,야외시설,127.1009053,37.36363925
나이스파크 분당예스빌딩 주차장,성남시 분당구,경기 성남시 분당구 대왕판교로 288,실외,건물주변,127.1022531,37.36938214
궁내동 210-1 주차장,성남시 분당구,경기 성남시 분당구 궁내동 210-1,실외,건물주변,127.1021322,37.36932367
리젠트카운티 주차장,성남시 분당구,경기 성남시 분당구 궁내로22번길 21,실외,건물주변,127.1003409,37.37126241
나이스파크 궁내빌딩2주차장,성남시 분당구,경기 성남시 분당구 대왕판교로 291,실외,건물주변,127.1013876,37.36970815
투루카 폭스바겐 판교서비스센터 지상2주차장,성남시 분당구,경기 성남시 분당구 대왕판교로 283,미분류,미분류,127.1012704,37.36902437
구미동주차장,성남시 분당구,경기 성남시 분당구 미금일로74번길 15,실내,지상,127.1114515,37.34717341
구미동주차장,성남시 분당구,경기 성남시 분당구 미금일로74번길 15,실내,지상,127.1114515,37.34717341
구미동주차장,성남시 분당구,경기 성남시 분당구 미금일로74번길 15,실내,지하,127.1114515,37.34717341
구미동주차장,성남시 분당구,경기 성남시 분당구 미금일로74번길 15,실내,지하,127.1114515,37.34717341
구미동행정복지센터 주차장,성남시 분당구,경기 성남시 분당구 구미로 130,실내,지하,127.1226133,37.34022805
구미동 229 주차장,성남시 분당구,경기 성남시 분당구 구미동 229,실외,노외,127.1230825,37.34004465
오리역환승공영주차장,성남시 분당구,경기 성남시 분당구 구미동 196,실내,지하,127.1096047,37.33990113
분당서울대학교병원 주차장,성남시 분당구,경기 성남시 분당구 구미로173번길 82,실내,지상,127.1248019,37.34798543
분당서울대학교병원 주차장,성남시 분당구,경기 성남시 분당구 구미로173번길 82,실내,지상,127.1248019,37.34798543
분당서울대학교병원 지하주차장,성남시 분당구,경기 성남시 분당구 구미로173번길 82,실내,지하,127.1225721,37.35094313
분당서울대학교병원 주차장1,성남시 분당구,경기 성남시 분당구 구미로173번길 82,미분류,미분류,127.1249579,37.34678689
분당서울대학교병원 주차장,성남시 분당구,경기 성남시 분당구 구미로173번길 82,실외,야외시설,127.1248019,37.34798543
분당서울대학교병원 주차장,성남시 분당구,경기 성남시 분당구 구미로173번길 82,실외,야외시설,127.1248019,37.34798543
미금 더 프라자 주차장,성남시 분당구,경기 성남시 분당구 미금일로90번길 36-5,실내,지하,127.1104885,37.34931156
하나로마트 성남점 주차장,성남시 분당구,경기 성남시 분당구 구미동 174,실외,야외시설,127.1079323,37.3375762
구미동차고지,성남시 분당구,경기 성남시 분당구 탄천상로163번길 10,실외,노외,127.1054846,37.34153484
분당프라자 주차장,성남시 분당구,경기 성남시 분당구 돌마로 68,실내,지하,127.1098094,37.34951402
분당엠타워 주차장,성남시 분당구,경기 성남시 분당구 구미로 8,실내,지상,127.1101114,37.33760483
시그마2오피스텔 지하주차장,성남시 분당구,경기 성남시 분당구 탄천상로 164,실내,지하,127.1048346,37.34483318
분당포스빌오피스텔 주차장,성남시 분당구,경기 성남시 분당구 성남대로 51,실내,지상,127.10809,37.34047197
탑월드 유료주차장,성남시 분당구,경기 성남시 분당구 구미로9번길 25,실내,지하,127.1099293,37.34038468
분당대맥주차빌딩,성남시 분당구,경기 성남시 분당구 구미로9번길 25,실내,지상,127.1099293,37.34038468
구미공원 주차장,성남시 분당구,경기 성남시 분당구 구미동 303-6,실외,야외시설,127.1181902,37.34057855
2001아울렛 분당점 주차장,성남시 분당구,경기 성남시 분당구 미금일로154번길 20,실내,지하,127.1071647,37.34927047
로드랜드EZ타워 주차장,성남시 분당구,경기 성남시 분당구 성남대로 69,실내,지상,127.108187,37.34201805
구미도서관 주차장,성남시 분당구,경기 성남시 분당구 미금일로 105,실외,건물주변,127.1076887,37.34552982
미금웰파크 주차장,성남시 분당구,경기 성남시 분당구 미금일로90번길 32,실내,지하,127.1104654,37.34894036
성우스타우스오피스텔 주차장,성남시 분당구,경기 성남시 분당구 구미로 16,실내,지상,127.111408,37.33756668
하나로클럽 성남점 주차장1,성남시 분당구,경기 성남시 분당구 성남대로43번길 11,실외,야외시설,127.1087191,37.33693305
글로리타워 주차장,성남시 분당구,경기 성남시 분당구 구미로9번길 3-10,실내,지하,127.1097308,37.33889816
계산빌딩 주차장,성남시 분당구,경기 성남시 분당구 성남대로 36,실내,지상,127.1095212,37.33912902
분당엠코헤리츠 주차장,성남시 분당구,경기 성남시 분당구 성남대로 151,실내,지하,127.1082164,37.34918932
MD프라자 주차장,성남시 분당구,경기 성남시 분당구 돌마로 52,실내,지하,127.1077443,37.34968892
홈플러스오리점 주차장,성남시 분당구,경기 성남시 분당구 탄천상로151번길 20,실내,지하,127.1067339,37.34077955
포인트타운 주차장,성남시 분당구,경기 성남시 분당구 구미로 11,실내,지하,127.1104818,37.33851813
현대벤처빌오피스텔 주차장,성남시 분당구,경기 성남시 분당구 돌마로 80,실내,지하,127.1106628,37.34960333
한샘바흐하우스 주차장,성남시 분당구,경기 성남시 분당구 구미로159번길 6,실내,지하,127.1247604,37.3433722
그랜드프라자 주차장,성남시 분당구,경기 성남시 분당구 성남대로 52,실내,지상,127.1094012,37.34045365
FANTOM 민영주차장,성남시 분당구,경기 성남시 분당구 구미로9번길 7,실내,지상,127.1100976,37.33895819
그랜드빌 지하주차장,성남시 분당구,경기 성남시 분당구 미금로 114,실내,지하,127.1173921,37.34329595
캠핑생활 성남818 프라이빗 파크 성남1주차장,성남시 분당구,경기 성남시 분당구 구미동 818-1,실외,야외시설,127.1029672,37.34256423
광천프라자 주차장,성남시 분당구,경기 성남시 분당구 돌마로 46,실내,지하,127.1068932,37.34962482
카카오 T 광천프라자 주차장,성남시 분당구,경기 성남시 분당구 돌마로 46,실내,지상,127.1069892,37.3496878
SM빌딩 주차장,성남시 분당구,경기 성남시 분당구 성남대로 45,실내,지하,127.1082121,37.3398952
드Y 지하주차장,성남시 분당구,경기 성남시 분당구 구미로174번길 6,실내,지하,127.1252895,37.34253729
무지개마을9단지 동아아파트 지하주차장,성남시 분당구,경기 성남시 분당구 구미로144번길 8,실외,건물주변,127.1239007,37.34075291
무지개마을12단지주공아파트 지하주차장,성남시 분당구,경기 성남시 분당구 미금로22번길 10,실내,지하,127.1187726,37.33489066
쏘카존 분당앤스퀘어 주차장,성남시 분당구,경기 성남시 분당구 탄천상로151번길 20 지하 4층 15구역,실내,지하,127.1069721,37.340045
쏘카존 탑월드주차빌딩,성남시 분당구,경기 성남시 분당구 구미로9번길 25 지상 6층,실내,지상,127.1097554,37.34035511
쏘카존 탑월드주차빌딩,성남시 분당구,경기 성남시 분당구 구미로9번길 25 지상 6층,실내,지상,127.1097554,37.34035511
쏘카존 탑월드주차빌딩,성남시 분당구,경기 성남시 분당구 구미로9번길 25 지상 6층,실내,지하,127.1097554,37.34035511
쏘카존 탑월드주차빌딩,성남시 분당구,경기 성남시 분당구 구미로9번길 25 지상 6층,실내,지하,127.1097554,37.34035511
하나이지타워 관리단,성남시 분당구,경기 성남시 분당구 성남대로43번길 10,실내,지상,127.1078151,37.34002802
비티컴퍼스,성남시 분당구,경기 성남시 분당구 구미로 60,실외,건물주변,127.1156728,37.33780676
오리역환승주차장 전기차충전소,성남시 분당구,경기 성남시 분당구 성남대로 40-1 지하3층 전기실 앞 벽면 (2기),실내,지하,127.1091672,37.33938074
"까치마을 4단지 401,405,409동 지하1층 주차장 민방위대피소",성남시 분당구,경기 성남시 분당구 미금일로 58,실내,지하,127.1128384,37.34706127
까치마을 1단지 114동~116동 지하1층 주차장 민방위대피소,성남시 분당구,경기 성남시 분당구 미금로 184,실내,지하,127.1169587,37.35055867
현대노블리스 107동 108동 지하주차장 전기차충전소,성남시 분당구,"경기 성남시 분당구 금곡로 171 (구미동, 현대노블리스)",실내,지하,127.1191891,37.34926437
오리역 환승공영주차장 지하2층~지하3층 민방위대피소,성남시 분당구,경기 성남시 분당구 구미동 197-1,실내,지하,127.1090584,37.34059452
무지개마을 청구아파트 506동 지하1층 주차장 민방위대피소,성남시 분당구,경기 성남시 분당구 무지개로 144,실내,지하,127.1184639,37.33953037
경기성남 하얀마을5단지 1주차장 전기차충전소,성남시 분당구,경기 성남시 분당구 미금일로 21 1주차장 지하1층 A24 기둥우측,실내,지하,127.1178172,37.34599411
"무지개마을 대림아파트 101동,105동 지하1층 주차장 민방위대피소",성남시 분당구,경기 성남시 분당구 미금로 23,실내,지하,127.1177194,37.33466105
까치마을 2단지 202동~205동 지하1층 주차장 민방위대피소,성남시 분당구,경기 성남시 분당구 미금일로 22,실내,지하,127.1177391,37.34803051
"무지개마을 건영아파트 601동,603동 지하1층 주차장 민방위대피소",성남시 분당구,경기 성남시 분당구 구미로 115,실외,건물주변,127.1217529,37.34059746
"무지개마을 엘지아파트 207동,210동 지하1층 주차장 민방위대피소",성남시 분당구,경기 성남시 분당구 구미로 50,실내,지하,127.1140366,37.33640545
까치마을 3단지 308동~309동 지하1층 주차장 민방위대피소,성남시 분당구,경기 성남시 분당구 미금로 177,실내,지하,127.1139919,37.3493668
까치마을 3단지 308동~309동 지하1층 주차장 민방위대피소,성남시 분당구,경기 성남시 분당구 미금로 177,실내,지하,127.1139919,37.3493668
까치마을 3단지 308동~309동 지하1층 주차장 민방위대피소,성남시 분당구,경기 성남시 분당구 미금로 177,실외,건물주변,127.1139919,37.3493668
까치마을 3단지 308동~309동 지하1층 주차장 민방위대피소,성남시 분당구,경기 성남시 분당구 미금로 177,실외,건물주변,127.1139919,37.3493668
경기성남 하얀마을5단지 2주차장 전기차충전소,성남시 분당구,경기 성남시 분당구 미금일로 21 2주차장 지하1층 B07 기둥좌측,실내,지하,127.1178172,37.34599411
경기성남 하얀마을5단지 3주차장 전기차충전소,성남시 분당구,경기 성남시 분당구 미금일로 21 3주차장 지하1층 C07 기둥좌측,실내,지하,127.1178172,37.34599411
성남 무지개마을5단지청구아파트 지상주차장 전기차충전소,성남시 분당구,"경기 성남시 분당구 무지개로 144 502동 앞 3기, 504동 앞 3기, 505동 앞 3기, 506동 앞 3기, 509동 앞 3기, 512동 앞 3기",미분류,미분류,127.1184377,37.33939795
솔밭 주차장,성남시 분당구,경기 성남시 분당구 동원동 62-4,실외,건물주변,127.1008007,37.34451232
캠핑생활 성남3723 프라이빗 파크 성남3주차장,성남시 분당구,경기 성남시 분당구 동원동 37-23,실외,노외,127.102097,37.34582491
캠핑생활 성남3722 프라이빗 파크 성남4주차장,성남시 분당구,경기 성남시 분당구 동원동 37-22,실외,노외,127.1021058,37.3465259
판교 제2공영주차장,성남시 분당구,경기 성남시 분당구 판교동 574,실외,노외,127.0985155,37.39038548
판교동임시 공영주차장,성남시 분당구,경기 성남시 분당구 판교동 578,실외,노외,127.0981133,37.38934063
신화푸드빌리지 판교점 주차장,성남시 분당구,경기 성남시 분당구 판교로 185,실내,지상,127.095073,37.40064012
판교도서관 주차장,성남시 분당구,경기 성남시 분당구 판교동 553,실외,건물주변,127.090485,37.39190111
판교유스센터 주차장,성남시 분당구,경기 성남시 분당구 판교동 553,실외,야외시설,127.0916826,37.3913857
낙생농협하나로마트 주차장,성남시 분당구,경기 성남시 분당구 서판교로32번길 7,실내,지하,127.098306,37.38991712
하이파킹 서판교점,성남시 분당구,경기 성남시 분당구 판교동 620,실내,지상,127.0902087,37.39026777
하이파킹 서판교2점 주차장,성남시 분당구,경기 성남시 분당구 판교공원로2길 2 AJ주차타워,실내,지상,127.0906151,37.39018096
하이파킹 석란빌딩 주차장,성남시 분당구,경기 성남시 분당구 판교로 182-7,실내,지상,127.0958974,37.39973663
하이파킹 석란빌딩 주차장,성남시 분당구,경기 성남시 분당구 판교로 182-7,실내,지상,127.0958974,37.39973663
하이파킹 석란빌딩 주차장,성남시 분당구,경기 성남시 분당구 판교로 182-7,실외,건물주변,127.0958974,37.39973663
하이파킹 석란빌딩 주차장,성남시 분당구,경기 성남시 분당구 판교로 182-7,실외,건물주변,127.0958974,37.39973663
판교박물관 주차장,성남시 분당구,경기 성남시 분당구 판교동 499,실외,야외시설,127.0953669,37.40082189
뚜에이오 주차장,성남시 분당구,경기 성남시 분당구 판교동 614,골목길,상가,127.0888142,37.39138879
판교원마을11단지현대힐스테이트아파트 지하주차장,성남시 분당구,경기 성남시 분당구 서판교로 147,실내,지하,127.0948546,37.39757863
리버스토리 민영주차장,성남시 분당구,경기 성남시 분당구 운중로 242,실내,지하,127.0897229,37.38916979
판교동행정복지센터 지하주차장,성남시 분당구,경기 성남시 분당구 서판교로32번길 9,실내,지하,127.098673,37.38992222
하이파킹 서판교2점,성남시 분당구,경기 성남시 분당구 판교공원로3길 10,실내,지상,127.0906524,37.39021066
KM파크 서판교 주차장,성남시 분당구,경기 성남시 분당구 판교동 571-11,미분류,미분류,127.0998958,37.38973198
투루 서판교점 민영 주차장,성남시 분당구,경기 성남시 분당구 판교공원로5길 20,실내,지상,127.0901965,37.39045969
쏘카존 판교동임시공영주차장,성남시 분당구,경기 성남시 분당구 서판교로32번길 20 지상 1층,실외,노외,127.0980035,37.38914339
판교도서관 주차장 전기차충전소,성남시 분당구,"경기 성남시 분당구 판교공원로4길 27 판교도서관,실외, 실내",실내,지상,127.0897548,37.39221342
판교도서관 주차장 전기차충전소,성남시 분당구,"경기 성남시 분당구 판교공원로4길 27 판교도서관,실외, 실내",실내,지상,127.0897548,37.39221342
판교도서관 주차장 전기차충전소,성남시 분당구,"경기 성남시 분당구 판교공원로4길 27 판교도서관,실외, 실내",실외,건물주변,127.0897548,37.39221342
판교도서관 주차장 전기차충전소,성남시 분당구,"경기 성남시 분당구 판교공원로4길 27 판교도서관,실외, 실내",실외,건물주변,127.0897548,37.39221342
판교제2공영주차장 전기차충전소,성남시 분당구,경기 성남시 분당구 서판교로32번길 3-12 입구 기준 우측 코너 보도블럭 상부 전면설치,실외,노외,127.0982206,37.39019921
판교원마을13단지 2주차장 1305동 B2 27기둥 전기차충전소,성남시 분당구,경기 성남시 분당구 서판교로 193,실내,지하,127.0913096,37.40324163
판교원마을 13단지 전체 동의 지하1~2층 주차장 민방위대피소,성남시 분당구,경기 성남시 분당구 서판교로 193,실내,지하,127.091758,37.40322777
판교원마을 8단지 전체 동의 지하1층 주차장 민방위대피소,성남시 분당구,경기 성남시 분당구 판교원로 255,실내,지하,127.0947809,37.38749445
분당 서판교2호점 주차장 지상 4층 전기차충전소,성남시 분당구,경기 성남시 분당구 판교공원로2길 2 서판교2호점 주차장 지상 4층,실내,지상,127.0907077,37.39022864
판교원마을 3단지 전체 동의 지하1~2층 주차장 민방위대피소,성남시 분당구,경기 성남시 분당구 판교로 20,실내,지하,127.0850781,37.38794423
판교원마을 5단지 전체 동의 지하1~2층 주차장 민방위대피소,성남시 분당구,경기 성남시 분당구 판교원로 207,실내,지하,127.088925,37.38767199
판교원마을 12단지 전체 동의 지하1~2층 주차장 민방위대피소,성남시 분당구,경기 성남시 분당구 서판교로 165,실내,지하,127.0939892,37.40005803
판교원마을 10단지 전체 동의 지하1층 주차장 민방위대피소,성남시 분당구,경기 성남시 분당구 서판교로 73,실내,지하,127.0969915,37.39333578
판교원마을 9단지 전체 동의 지하1~2층 주차장 민방위대피소,성남시 분당구,경기 성남시 분당구 서판교로 29,실내,지하,127.0965666,37.38956986
판교원마을 7단지 전체 동의 지하1~2층 주차장 민방위대피소,성남시 분당구,경기 성남시 분당구 판교원로 237,실내,지하,127.0927636,37.38703292
판교원마을 1단지 전체 동의 지하1~2층 주차장 민방위대피소,성남시 분당구,경기 성남시 분당구 판교로 50,실내,지하,127.0871504,37.39196398
판교역 환승 공영주차장,성남시 분당구,경기 성남시 분당구 분당내곡로 121,실내,지상,127.1112972,37.39473779
판교역 환승 공영주차장,성남시 분당구,경기 성남시 분당구 분당내곡로 121,실내,지상,127.1112972,37.39473779
판교역 환승 공영주차장,성남시 분당구,경기 성남시 분당구 분당내곡로 121,실내,지하,127.1112972,37.39473779
판교역 환승 공영주차장,성남시 분당구,경기 성남시 분당구 분당내곡로 121,실내,지하,127.1112972,37.39473779
판교공영주차장,성남시 분당구,경기 성남시 분당구 백현동 539,실내,지상,127.1107361,37.39335345
백현동카페거리 공영주차장,성남시 분당구,경기 성남시 분당구 판교역로2번길 23,실내,지상,127.1119824,37.3854485
현대백화점 판교점 주차장,성남시 분당구,경기 성남시 분당구 판교역로146번길 20,실내,지하,127.1120542,37.39276023
힐스테이트판교역오피스텔 주차장,성남시 분당구,경기 성남시 분당구 판교역로 138,실내,지상,127.1104048,37.39306453
임시주차장,성남시 분당구,경기 성남시 분당구 백현동 567,실외,노외,127.1090877,37.38583504
카카오 T 판교테크원 주차장,성남시 분당구,경기 성남시 분당구 분당내곡로 131,실내,지하,127.1121306,37.39547494
판교어린이도서관 주차장,성남시 분당구,경기 성남시 분당구 백현동 523,실외,야외시설,127.1080278,37.38685597
그레이츠 판교 주차장,성남시 분당구,경기 성남시 분당구 분당내곡로 117,실내,지하,127.1125231,37.39442758
하나님의교회 주차장,성남시 분당구,경기 성남시 분당구 판교역로 35,실내,지하,127.1084569,37.38374705
라스트리트 주차장,성남시 분당구,경기 성남시 분당구 판교역로 145,실내,지하,127.1092082,37.39417299
알파리움1단지아파트 전용주차장,성남시 분당구,경기 성남시 분당구 대왕판교로606번길 10,실내,지하,127.1085863,37.39595669
남서울CC 주차장,성남시 분당구,경기 성남시 분당구 판교백현로 161,실외,노외,127.0834763,37.38229685
백마강참숯민물장어 판교점 주차장,성남시 분당구,경기 성남시 분당구 백현동 475-5,실외,야외시설,127.0982666,37.38136644
백현동행정복지센터 주차장,성남시 분당구,경기 성남시 분당구 동판교로 21,실내,지하,127.1108397,37.38853828
백현마을2단지휴먼시아아파트 지하주차장,성남시 분당구,경기 성남시 분당구 동판교로 122,실내,지하,127.1188483,37.39296444
카카오 판교 아지트 주차장,성남시 분당구,경기 성남시 분당구 판교역로 166,실내,지하,127.1104873,37.39542963
사계절한정식 주차장,성남시 분당구,경기 성남시 분당구 백현동 491,실외,야외시설,127.0939378,37.38243587
긴자 백현점 주차장,성남시 분당구,경기 성남시 분당구 백현동 489-4,실외,야외시설,127.0950179,37.38200792
카카오T 판교알파돔타워 주차장,성남시 분당구,경기 성남시 분당구 판교역로 152,실내,지하,127.1099529,37.39447054
더샵공영주차장,성남시 분당구,경기 성남시 분당구 백현동 516-20,실외,노외,127.0925537,37.38350828
너와집백합샤브샤브 백현점 주차장,성남시 분당구,경기 성남시 분당구 백현동 490-9,실외,야외시설,127.0942819,37.38218782
루프 주차장,성남시 분당구,경기 성남시 분당구 백현동 585-3,골목길,상가,127.1140154,37.38503569
"투루파킹 힐스테이트 판교역 101동,102동 주차장",성남시 분당구,경기 성남시 분당구 판교역로 136,미분류,미분류,127.110037,37.39253957
카페두레브 주차장,성남시 분당구,경기 성남시 분당구 판교백현로 57,골목길,상가,127.0929679,37.38244475
보평고등학교 주차장,성남시 분당구,경기 성남시 분당구 백현동 544,실외,건물주변,127.1181594,37.39439505
큰집쭈꾸미 본점 주차장,성남시 분당구,경기 성남시 분당구 백현동 472-74,실외,건물주변,127.1022679,37.37778148
휴먼시아지하주차장,성남시 분당구,경기 성남시 분당구 판교역로 102,실내,지하,127.1117734,37.39071788
이마트24 판교남서울점 노상 민영 주차장,성남시 분당구,경기 성남시 분당구 백현동 485-5,실외,노상,127.0967351,37.38192274
알파돔타워지하주차장 입출구,성남시 분당구,경기 성남시 분당구 백현동 531-1,실내,지하,127.1097914,37.39444817
환승주차장삼거리,성남시 분당구,경기 성남시 분당구 백현동,미분류,미분류,127.1096684,37.39374729
쏘카존 판교역환승공영주차장,성남시 분당구,경기 성남시 분당구 분당내곡로 131 지하 1층,실내,지하,127.1121305,37.39545962
쏘카존 백현동카페거리 공영주차장,성남시 분당구,경기 성남시 분당구 판교역로2번길 23 지상 4층,실내,지상,127.1119812,37.3854467
쏘카존 그레이츠판교 주차장,성남시 분당구,경기 성남시 분당구 분당내곡로 117 지하 6층 전기차 충전구역,실내,지하,127.1124785,37.39403568
카카오판교아지트 주차장입구,성남시 분당구,경기 성남시 분당구 판교역로 166 1층,실내,지하,127.1100226,37.39503181
쏘카존 현대백화점 판교점 주차장,성남시 분당구,경기 성남시 분당구 판교역로146번길 20 지하 6층 k3-4,실내,지하,127.1117414,37.39199556
쏘카존 그레이츠 판교(GREITS PANGYO) 주차장,성남시 분당구,경기 성남시 분당구 분당내곡로 117 지하 5층 02-05번 인근 구역,실내,지하,127.1124846,37.39434742
투루카 백현마을 4단지 412동 지하주차장(지하 2층),성남시 분당구,경기 성남시 분당구 동판교로 91 지하2층,실내,지하,127.1135457,37.39029091
투루카 백현마을 2단지 203동 지하주차장(지하 2층),성남시 분당구,경기 성남시 분당구 동판교로 122 지하2층,실내,지하,127.1186059,37.39319895
판교역 환승주차장 전기차충전소,성남시 분당구,경기 성남시 분당구 분당내곡로 121 지하1층 주차장 진입 후 정면 벽쪽,실내,지하,127.1124807,37.39474388
판교공영주차장 전기차충전소,성남시 분당구,"경기 성남시 분당구 판교역로146번길 8 지상3층 EPS실 옆 벽면, 지상4층 EPS실 옆 벽면, 지상5층 EPS실 옆 벽면, 지상6층 EPS실 옆 벽면",실내,지상,127.1107455,37.39362284
판교역 환승주차장 전기차충전소,성남시 분당구,경기 성남시 분당구 분당내곡로 131 지하 1층 주차장 B09,실내,지하,127.1125138,37.39497
유스페이스2 주차장,성남시 분당구,경기 성남시 분당구 대왕판교로 670,실내,지하,127.1071257,37.4020237
판교7벤처밸리1단지 주차장,성남시 분당구,경기 성남시 분당구 판교로228번길 15,실내,지하,127.1017857,37.40198066
하이파킹 판교메트로큐브점,성남시 분당구,경기 성남시 분당구 대왕판교로606번길 31,실내,지하,127.1106992,37.39666203
아브뉴프랑 판교점 주차장,성남시 분당구,경기 성남시 분당구 동판교로177번길 25,실내,지하,127.1134038,37.39727397
SG타워 주차장,성남시 분당구,경기 성남시 분당구 대왕판교로606번길 47,실내,지하,127.1125173,37.39694875
삼평동행정복지센터 주차장,성남시 분당구,경기 성남시 분당구 동판교로266번길 7,실내,지하,127.1163097,37.40612818
판교이노밸리 주차장,성남시 분당구,경기 성남시 분당구 판교로 253,실내,지하,127.0999101,37.40308421
삼환하이펙스A동 주차장,성남시 분당구,경기 성남시 분당구 판교역로 240,실내,지하,127.1108497,37.40225182
판교엠타워주차장,성남시 분당구,경기 성남시 분당구 판교역로241번길 22,실내,지상,127.1068218,37.40277452
판교실리콘파크 주차장,성남시 분당구,경기 성남시 분당구 판교로255번길 35,실내,지하,127.0994701,37.4051362
판교유스페이스 주차장,성남시 분당구,경기 성남시 분당구 대왕판교로 660,실내,지하,127.106814,37.40046431
코트야드메리어트호텔 주차장,성남시 분당구,경기 성남시 분당구 판교역로192번길 12,실내,지하,127.1104891,37.39739206
야외1층유료주차장,성남시 분당구,경기 성남시 분당구 삼평동 650,실외,노외,127.1113759,37.39682718
W스퀘어 주차장,성남시 분당구,경기 성남시 분당구 판교역로226번길 16,실내,지상,127.1114582,37.4005285
예미지빌딩 주차장,성남시 분당구,경기 성남시 분당구 판교역로192번길 14-1,실내,지하,127.1118038,37.39751246
판교에듀파크W-CITY 주차장,성남시 분당구,경기 성남시 분당구 판교로255번길 9-22,실내,지하,127.0999953,37.40350581
서건타워 주차장,성남시 분당구,경기 성남시 분당구 판교역로 178,실내,지하,127.1101897,37.39654808
판교디지털센터관리단 주차장,성남시 분당구,경기 성남시 분당구 판교로 242,실내,지하,127.1007957,37.4023266
플레이허브 주차장,성남시 분당구,경기 성남시 분당구 대왕판교로712번길 11,실내,지상,127.1031925,37.40572678
판교환경생태학습원 주차장,성남시 분당구,경기 성남시 분당구 대왕판교로645번길 21,미분류,미분류,127.103873,37.39958303
삼환하이펙스 B동 주차장,성남시 분당구,경기 성남시 분당구 판교역로 230,실내,지하,127.1104496,37.40125026
브릿지타워 주차장,성남시 분당구,경기 성남시 분당구 판교로227번길 6,실내,지상,127.0992052,37.40296857
한국반도체산업협회 주차장,성남시 분당구,경기 성남시 분당구 판교역로 182,실내,지하,127.110179,37.39698869
H스퀘어 S동 주차장,성남시 분당구,경기 성남시 분당구 판교역로 231,실내,지하,127.1086538,37.40126995
디테라스 주차장,성남시 분당구,경기 성남시 분당구 판교로319번길 13,실내,지상,127.1091058,37.40377347
판교이노밸리5블럭 관리단,성남시 분당구,경기 성남시 분당구 판교로 255,실내,지하,127.1030486,37.40374286
브이포럼&ABN빌딩 주차장,성남시 분당구,경기 성남시 분당구 삼평동 690,실내,지하,127.1102554,37.40365437
하이파킹 판교천석미래로점,성남시 분당구,경기 성남시 분당구 동판교로266번길 14,실내,지상,127.1169062,37.4062285
럭스타워 주차장,성남시 분당구,경기 성남시 분당구 대왕판교로606번길 39,실내,지하,127.1115538,37.39648102
판교역푸르지오시티오피스텔 주차장,성남시 분당구,경기 성남시 분당구 삼평동 653,실내,지하,127.1121151,37.39677973
FN플레이스 판교 주차장,성남시 분당구,경기 성남시 분당구 판교역로 188,실내,지하,127.1100544,37.39744832
월드스퀘어 주차장,성남시 분당구,경기 성남시 분당구 대왕판교로606번길 58,미분류,미분류,127.1135557,37.39541952
매디포스트 빌딩 민영 주차장,성남시 분당구,경기 성남시 분당구 대왕판교로644번길 21,실내,지하,127.1092021,37.40006568
성남삼평동우체국 주차장,성남시 분당구,경기 성남시 분당구 삼평동 715,실외,야외시설,127.1161681,37.40660586
아마노 판교kcc웰츠타워 주차장,성남시 분당구,경기 성남시 분당구 분당내곡로 155,실내,지하,127.1125211,37.39763522
NS홈쇼핑 별관 주차장,성남시 분당구,경기 성남시 분당구 대왕판교로645번길 36,실내,지상,127.102084,37.40037839
나이스파크 판교 미래에셋벤처타워 주차장,성남시 분당구,경기 성남시 분당구 판교역로241번길 20,실내,지하,127.1073581,37.40267582
JS타워 주차장,성남시 분당구,경기 성남시 분당구 판교역로 184,실내,지하,127.1100438,37.39714919
아이코닉스 주차장,성남시 분당구,경기 성남시 분당구 판교로255번길 64,실내,지하,127.097715,37.40433846
프라임스퀘어 주차장,성남시 분당구,경기 성남시 분당구 대왕판교로606번길 41,실내,지하,127.1118339,37.39645193
골드타워 주차장,성남시 분당구,경기 성남시 분당구 판교역로192번길 14-2,실내,지하,127.1120468,37.39759963
GB1빌딩 주차장,성남시 분당구,경기 성남시 분당구 판교로256번길 19,실내,지상,127.1035159,37.40110607
삼도타워 주차장,성남시 분당구,경기 성남시 분당구 분당내곡로 151,실내,지하,127.1125174,37.39737843
해링턴타워 주차장,성남시 분당구,경기 성남시 분당구 판교역로192번길 22,실내,지하,127.1121952,37.39795719
판교타워 주차장,성남시 분당구,경기 성남시 분당구 판교역로192번길 16,실내,지하,127.111427,37.3977642
스타식스코아1차 주차장,성남시 분당구,경기 성남시 분당구 판교로 372,실내,지하,127.1157006,37.40369602
삼평중학교 주차장,성남시 분당구,경기 성남시 분당구 삼평동 727,실외,건물주변,127.1161255,37.40091145
리치투게더센터 주차장,성남시 분당구,경기 성남시 분당구 판교역로192번길 14,실내,지하,127.1114027,37.39737498
성남송현초등학교 주차장,성남시 분당구,경기 성남시 분당구 삼평동 710,실외,건물주변,127.1158391,37.40566912
KM파크 이룸빌딩 주차장,성남시 분당구,경기 성남시 분당구 판교역로 225-18,실내,지하,127.1080731,37.40036405
쏘카존 판교SK플래닛 주차장,성남시 분당구,경기 성남시 분당구 판교로 264 지하 1층 쏘카 주차구역,실내,지하,127.1035688,37.4025882
스마일게이트캠퍼스 지하주차장 입구,성남시 분당구,경기 성남시 분당구 판교로 344,실내,지하,127.1118022,37.40251763
투루카 봇들마을3단지 302동 지하1층 주차장,성남시 분당구,경기 성남시 분당구 동판교로 225 지하1층,실내,지하,127.1157467,37.40210117
한화에어로스페이스 지하1층 주차장 민방위대피소,성남시 분당구,경기 성남시 분당구 삼평동 701,실내,지하,127.1103669,37.40420839
봇들마을 8단지 모든 동의 지하1층 주차장 민방위대피소,성남시 분당구,경기 성남시 분당구 동판교로 153,실내,지하,127.1153001,37.39517816
봇들마을 5단지 모든 동의 지하1층 주차장 민방위대피소,성남시 분당구,경기 성남시 분당구 대왕판교로644번길 65,실내,지하,127.1145892,37.40072463
봇들마을 9단지 모든동의 지하1층 주차장 민방위대피소,성남시 분당구,경기 성남시 분당구 동판교로 156,실내,지하,127.1186746,37.39664979
봇들마을 3단지 모든 동의 지하1층 주차장 민방위대피소,성남시 분당구,경기 성남시 분당구 동판교로 225,실내,지하,127.1139973,37.40291108
봇들마을 7단지 모든 동의 지하1층 주차장 민방위대피소,성남시 분당구,경기 성남시 분당구 동판교로 155,실내,지하,127.1145082,37.39725038
봇들마을 1단지 모든 동 지하1층 주차장 민방위대피소,성남시 분당구,경기 성남시 분당구 동판교로 275,실내,지하,127.1139026,37.40376985
봇들마을 2단지 모든 동의 지하1층 주차장 민방위대피소,성남시 분당구,경기 성남시 분당구 판교로 393,실내,지하,127.1182531,37.4058163
운중동공영주차장,성남시 분당구,경기 성남시 분당구 운중로138번길 6,실내,지상,127.0779389,37.39088738
운중동공영주차장 지하주차장 전기차충전소,성남시 분당구,경기 성남시 분당구 운중로138번길 6,실내,지하,127.077879,37.39083967
장모밥상 주차장,성남시 분당구,경기 성남시 분당구 운중동 41-2,실외,노외,127.0576879,37.39076384
운중동 제2 공영주차장,성남시 분당구,경기 성남시 분당구 운중로125번길 4-6,실외,노외,127.0780217,37.39232896
카페랄로판교점 주차장,성남시 분당구,경기 성남시 분당구 하오개로 246,실외,야외시설,127.0475615,37.39373902
맥도날드 서판교DT점 주차장,성남시 분당구,경기 성남시 분당구 운중동 1031,실외,건물주변,127.0838636,37.39037425
노외공영주차장,성남시 분당구,경기 성남시 분당구 운중동 1041,실외,노외,127.0813622,37.3892353
운중동버스차고지,성남시 분당구,경기 성남시 분당구 운중동 902,실외,노외,127.0630854,37.39175581
노상공영주차장,성남시 분당구,경기 성남시 분당구 운중동 966,실외,노외,127.0786063,37.39191771
양과창양평해장국 본점 주차장,성남시 분당구,경기 성남시 분당구 운중동 324-3,실외,건물주변,127.0603686,37.39198159
운중농원갈비 주차장,성남시 분당구,경기 성남시 분당구 운중동 559-7,실외,노외,127.0451699,37.39417785
산운마을7단지 휴먼시아아파트 지하주차장,성남시 분당구,경기 성남시 분당구 산운로 135,실내,지하,127.0788045,37.39570728
안안 주차장,성남시 분당구,경기 성남시 분당구 운중로138번길 28-4,골목길,상가,127.0765463,37.39067205
이레빌딩 주차장,성남시 분당구,경기 성남시 분당구 운중로 194,실내,지하,127.0846168,37.39039984
정선한우 주차장,성남시 분당구,경기 성남시 분당구 하오개로 357,실외,건물주변,127.0588156,37.39161565
성남운중동우체국 전용주차장,성남시 분당구,경기 성남시 분당구 운중동 937,실외,건물주변,127.0787315,37.39069764
큐브타워오피스텔 주차장,성남시 분당구,경기 성남시 분당구 운중로 132,실내,지하,127.0777045,37.3912957
산운마을1단지 주차장,성남시 분당구,경기 성남시 분당구 산운로 7,실내,지하,127.0616595,37.39353699
채운 주차장,성남시 분당구,경기 성남시 분당구 운중동 41,실외,노외,127.0574939,37.39109731
나이스파크 분당마크시티그린주차장,성남시 분당구,경기 성남시 분당구 운중로 128,실내,지하,127.0774334,37.39125713
마크시티오렌지 주차장,성남시 분당구,경기 성남시 분당구 운중로 123,실내,지하,127.0769621,37.39198547
나이스파크 분당 트윈프라자1주차장,성남시 분당구,경기 성남시 분당구 운중로 172,실내,지하,127.0823082,37.39101687
나이스파크 분당 트윈프라자2주차장,성남시 분당구,경기 성남시 분당구 운중로 176,실내,지하,127.0826096,37.39094999
창호델피노 민영 주차장,성남시 분당구,경기 성남시 분당구 운중로 122,실내,지하,127.0766666,37.3912306
나이스파크 판교 스타식스메트로주차장,성남시 분당구,경기 성남시 분당구 운중로 131,실내,지하,127.0777819,37.39194168
나눔주차장,성남시 분당구,경기 성남시 분당구 운중동 968,실외,노외,127.0793086,37.39182353
계약자전용 민영주차장,성남시 분당구,경기 성남시 분당구 운중동 884,실외,노외,127.06486,37.39227384
산운마을13단지태영데시앙아파트 주차장 입구,성남시 분당구,경기 성남시 분당구 판교원로82번길 30,미분류,미분류,127.0739849,37.3869074
능이향기,성남시 분당구,경기 성남시 분당구 하오개로 353,실외,야외시설,127.0583741,37.39171859
운중동974공영주차장 전기차충전소,성남시 분당구,경기 성남시 분당구 운중로125번길 4-6 주차장 진입 좌측 끝 모서리,실외,노외,127.0778816,37.39219841
산운마을 4단지 모든 동 지하1층 주차장 민방위대피소,성남시 분당구,경기 성남시 분당구 판교원로 7,실내,지하,127.0680691,37.39069165
산운마을 8단지 모든 동 지하1층 주차장 민방위대피소,성남시 분당구,경기 성남시 분당구 산운로 98,실내,지하,127.072581,37.39245857
산운마을 5단지 모든 동 지하1층 주차장 민방위대피소,성남시 분당구,경기 성남시 분당구 산운로 97,실내,지하,127.0718587,37.39415293
판교 산운마을 11단지(1106동 앞 지상주차장) 전기차충전소,성남시 분당구,경기 성남시 분당구 판교원로 68 판교산운마을11단지,실내,지상,127.0751197,37.38916285
P판교대장타워,성남시 분당구,경기 성남시 분당구 판교대장로6길 20,실내,지상,127.0682342,37.36606295
원에스멀티케어,성남시 분당구,경기 성남시 분당구 판교대장로8길 10,실내,지하,127.0710388,37.3713386
이강개발 팰리시티1,성남시 분당구,경기 성남시 분당구 판교대장로8길 8,실내,지하,127.0706164,37.37116045
나이스파크 판교클라우드베이 4동 주차장,성남시 분당구,경기 성남시 분당구 판교대장로8길 9,실내,지하,127.0705061,37.37152994
나이스파크 판교클라우드베이 2동 주차장,성남시 분당구,경기 성남시 분당구 판교대장로8길 22,실내,지하,127.0721527,37.37207046
나이스파크 판교클라우드베이 3동 주차장,성남시 분당구,경기 성남시 분당구 판교대장로8길 15,실내,지하,127.0712391,37.37180251
헬로오드리 주차장,성남시 분당구,경기 성남시 분당구 석운동 6-2,미분류,미분류,127.0469395,37.37965717
캐니빌리지 주차장,성남시 분당구,경기 성남시 분당구 석운동 6-3,실외,노외,127.0471503,37.37916333
남서울CC 제2연습장 주차장,성남시 분당구,경기 성남시 분당구 판교원로82번길 51,실내,지상,127.0757605,37.38297962
